,N*32
00:19:52.778 $GNZDA,000105.00,06,01,1980,,*7B
00:19:52.854 $L1BAT,4.313*2D
00:19:52.907 $L1MAG,0.00,0.00,691,691*36
00:19:53.650 $GPGGA,000106.00,3438.8264,N,13545.3307,E,0,00,2.0,0.0,M,0.0,M,,*5D
00:19:53.652 $GNGLL,3438.8264,N,13545.3307,E,000106.00,V,N*6D
00:19:53.652 $GNGSA,A,1,,,,,,,,,,,,,3.2,2.0,2.5*2A
00:19:53.660 $GNRMC,000106.00,V,3438.8264,N,13545.3307,E,,,060180,,,N*55
00:19:53.672 $GNVTG,,T,,M,,N,,K,N*32
00:19:53.672 $GNZDA,000106.00,06,01,1980,,*78
00:19:53.756 $L1BAT,4.313*2D
00:19:53.858 $L1MAG,0.00,0.00,712,712*36
00:19:54.648 $GPGGA,000107.00,3438.8264,N,13545.3307,E,0,00,2.0,0.0,M,0.0,M,,*5C
00:19:54.650 $GNGLL,3438.8264,N,13545.3307,E,000107.00,V,N*6C
00:19:54.650 $GNGSA,A,1,,,,,,,,,,,,,3.2,2.0,2.5*2A
00:19:54.666 $GNRMC,000107.00,V,3438.8264,N,13545.3307,E,,,060180,,,N*54
00:19:54.671 $GNVTG,,T,,M,,N,,K,N*32
00:19:54.671 $GNZDA,000107.00,06,01,1980,,*79
00:19:54.789 $L1BAT,4.313*2D
00:19:54.860 $L1MAG,0.00,0.00,664,664*36
00:19:55.696 $GPGGA,000108.00,3438.8264,N,13545.3307,E,0,00,2.0,0.0,M,0.0,M,,*53
00:19:55.699 $GNGLL,3438.8264,N,13545.3307,E,000108.00,V,N*63
00:19:55.699 $GNGSA,A,1,,,,,,,,,,,,,3.2,2.0,2.5*2A
00:19:55.699 $GNRMC,000108.00,V,3438.8264,N,13545.3307,E,,,060180,,,N*5B
00:19:55.700 $GNVTG,,T,,M,,N,,K,N*32
00:19:55.700 $GNZDA,000108.00,06,01,1980,,*76
00:19:55.755 $L1BAT,4.313*2D
00:19:55.899 $L1MAG,0.00,0.00,675,675*36
00:19:56.665 $GPGGA,000109.00,3438.8264,N,13545.3307,E,0,00,2.0,0.0,M,0.0,M,,*52
00:19:56.673 $GNGLL,3438.8264,N,13545.3307,E,000109.00,V,N*62
00:19:56.673 $GNGSA,A,1,,,,,,,,,,,,,3.2,2.0,2.5*2A
00:19:56.673 $GNRMC,000109.00,V,3438.8264,N,13545.3307,E,,,060180,,,N*5A
00:19:56.673 $GNVTG,,T,,M,,N,,K,N*32
00:19:56.673 $GNZDA,000109.00,06,01,1980,,*77
00:19:56.760 $L1BAT,4.313*2D
00:19:56.860 $L1MAG,0.00,0.00,687,687*36
00:19:57.661 $GPGGA,000110.00,3438.8264,N,13545.3307,E,0,00,2.0,0.0,M,0.0,M,,*5A
00:19:57.664 $GNGLL,3438.8264,N,13545.3307,E,000110.00,V,N*6A
00:19:57.664 $GNGSA,A,1,,,,,,,,,,,,,3.2,2.0,2.5*2A
00:19:57.701 $GNRMC,000110.00,V,3438.8264,N,13545.3307,E,,,060180,,,N*52
00:19:57.737 $GNVTG,,T,,M,,N,,K,N*32
00:19:57.737 $GNZDA,000110.00,06,01,1980,,*7F
00:19:57.819 $L1BAT,4.313*2D
00:19:57.880 $L1MAG,0.00,0.00,643,643*36
00:19:58.640 $GPGGA,000111.00,3438.8264,N,13545.3307,E,0,00,2.0,0.0,M,0.0,M,,*5B
00:19:58.666 $GNGLL,3438.8264,N,13545.3307,E,000111.00,V,N*6B
00:19:58.666 $GNGSA,A,1,,,,,,,,,,,,,3.2,2.0,2.5*2A
00:19:58.666 $GNRMC,000111.00,V,3438.8264,N,13545.3307,E,,,060180,,,N*53
00:19:58.666 $GNVTG,,T,,M,,N,,K,N*32
00:19:58.666 $GNZDA,000111.00,06,01,1980,,*7E
00:19:58.751 $L1BAT,4.313*2D
00:19:58.901 $L1MAG,0.00,0.00,549,549*36
00:19:59.648 $GPGGA,000112.00,3438.8264,N,13545.3307,E,0,00,2.0,0.0,M,0.0,M,,*58
00:19:59.657 $GNGLL,3438.8264,N,13545.3307,E,000112.00,V,N*68
00:19:59.657 $GNGSA,A,1,,,,,,,,,,,,,3.2,2.0,2.5*2A
00:19:59.668 $GNRMC,000112.00,V,3438.8264,N,13545.3307,E,,,060180,,,N*50
00:19:59.668 $GNVTG,,T,,M,,N,,K,N*32
00:19:59.668 $GNZDA,000112.00,06,01,1980,,*7D
00:19:59.741 $L1BAT,4.313*2D
00:19:59.904 $L1MAG,0.00,0.00,470,470*36
00:20:00.675 $GPGGA,000113.00,3438.8264,N,13545.3307,E,0,00,2.0,0.0,M,0.0,M,,*59
00:20:00.678 $GNGLL,3438.8264,N,13545.3307,E,000113.00,V,N*69
00:20:00.678 $GNGSA,A,1,,,,,,,,,,,,,3.2,2.0,2.5*2A
00:20:00.715 $GNRMC,000113.00,V,3438.8264,N,13545.3307,E,,,060180,,,N*51
00:20:00.718 $GNVTG,,T,,M,,N,,K,N*32
00:20:00.718 $GNZDA,000113.00,06,01,1980,,*7C
00:20:00.740 $L1BAT,4.313*2D
00:20:00.834 $L1MAG,0.00,0.00,469,469*36
00:20:01.667 $GPGGA,000114.00,3438.8264,N,13545.3307,E,0,00,2.0,0.0,M,0.0,M,,*5E
00:20:01.668 $GNGLL,3438.8264,N,13545.3307,E,000114.00,V,N*6E
00:20:01.668 $GNGSA,A,1,,,,,,,,,,,,,3.2,2.0,2.5*2A
00:20:01.670 $GNRMC,000114.00,V,3438.8264,N,13545.3307,E,,,060180,,,N*56
00:20:01.673 $GNVTG,,T,,M,,N,,K,N*32
00:20:01.673 $GNZDA,000114.00,06,01,1980,,*7B
00:20:01.751 $L1BAT,4.313*2D
00:20:01.903 $L1MAG,0.00,0.00,648,648*36
00:20:02.697 $GPGGA,000115.00,3438.8264,N,13545.3307,E,0,00,2.0,0.0,M,0.0,M,,*5F
00:20:02.699 $GNGLL,3438.8264,N,13545.3307,E,000115.00,V,N*6F
00:20:02.699 $GNGSA,A,1,,,,,,,,,,,,,3.2,2.0,2.5*2A
00:20:02.734 $GNRMC,000115.00,V,3438.8264,N,13545.3307,E,,,060180,,,N*57
00:20:02.773 $GNVTG,,T,,M,,N,,K,N*32
00:20:02.773 $GNZDA,000115.00,06,01,1980,,*7A
00:20:02.847 $L1BAT,4.313*2D
00:20:02.899 $L1MAG,0.00,0.00,800,800*36
00:20:03.640 $GPGGA,000116.00,3438.8264,N,13545.3307,E,0,00,2.0,0.0,M,0.0,M,,*5C
00:20:03.660 $GNGLL,3438.8264,N,13545.3307,E,000116.00,V,N*6C
00:20:03.660 $GNGSA,A,1,,,,,,,,,,,,,3.2,2.0,2.5*2A
00:20:03.673 $GNRMC,000116.00,V,3438.8264,N,13545.3307,E,,,060180,,,N*54
00:20:03.673 $GNVTG,,T,,M,,N,,K,N*32
00:20:03.673 $GNZDA,000116.00,06,01,1980,,*79
00:20:03.762 $L1BAT,4.313*2D
00:20:03.825 $L1MAG,0.00,0.00,768,768*36
00:20:04.663 $GPGGA,000117.00,3438.8264,N,13545.3307,E,0,00,2.0,0.0,M,0.0,M,,*5D
00:20:04.672 $GNGLL,3438.8264,N,13545.3307,E,000117.00,V,N*6D
00:20:04.673 $GNGSA,A,1,,,,,,,,,,,,,3.2,2.0,2.5*2A
00:20:04.674 $GNRMC,000117.00,V,3438.8264,N,13545.3307,E,,,060180,,,N*55
00:20:04.677 $GNVTG,,T,,M,,N,,K,N*32
00:20:04.677 $GNZDA,000117.00,06,01,1980,,*78
00:20:04.758 $L1BAT,4.313*2D
00:20:04.938 $L1MAG,0.00,0.00,648,648*36
00:20:05.693 $GPGGA,000118.00,3438.8264,N,13545.3307,E,0,00,2.0,0.0,M,0.0,M,,*52
00:20:05.697 $GNGLL,3438.8264,N,13545.3307,E,000118.00,V,N*62
00:20:05.697 $GNGSA,A,1,,,,,,,,,,,,,3.2,2.0,2.5*2A
00:20:05.734 $GNRMC,000118.00,V,3438.8264,N,13545.3307,E,,,060180,,,N*5A
00:20:05.758 $GNVTG,,T,,M,,N,,K,N*32
00:20:05.758 $GNZDA,000118.00,06,01,1980,,*77
00:20:05.760 $L1BAT,4.313*2D
00:20:05.868 $L1MAG,0.00,0.00,659,659*36
00:20:06.642 $GPGGA,000119.00,3438.8264,N,13545.3307,E,0,00,2.0,0.0,M,0.0,M,,*53
00:20:06.655 $GNGLL,3438.8264,N,13545.3307,E,000119.00,V,N*63
00:20:06.655 $GNGSA,A,1,,,,,,,,,,,,,3.2,2.0,2.5*2A
00:20:06.671 $GNRMC,000119.00,V,3438.8264,N,13545.3307,E,,,060180,,,N*5B
00:20:06.671 $GNVTG,,T,,M,,N,,K,N*32
00:20:06.671 $GNZDA,000119.00,06,01,1980,,*76
00:20:06.781 $L1BAT,4.313*2D
00:20:06.829 $L1MAG,0.00,0.00,645,645*36
00:20:07.650 $GPGGA,000120.00,3438.8264,N,13545.3307,E,0,00,2.0,0.0,M,0.0,M,,*59
00:20:07.653 $GNGLL,3438.8264,N,13545.3307,E,000120.00,V,N*69
00:20:07.653 $GNGSA,A,1,,,,,,,,,,,,,3.2,2.0,2.5*2A
00:20:07.663 $GNRMC,000120.00,V,3438.8264,N,13545.3307,E,,,060180,,,N*51
00:20:07.671 $GNVTG,,T,,M,,N,,K,N*32
00:20:07.671 $GNZDA,000120.00,06,01,1980,,*7C
00:20:07.761 $L1BAT,4.313*2D
00:20:07.908 $L1MAG,0.00,0.00,537,537*36
00:20:08.674 $GPGGA,000121.00,3438.8264,N,13545.3307,E,0,00,2.0,0.0,M,0.0,M,,*58
00:20:08.676 $GNGLL,3438.8264,N,13545.3307,E,000121.00,V,N*68
00:20:08.676 $GNGSA,A,1,,,,,,,,,,,,,3.2,2.0,2.5*2A
00:20:08.676 $GNRMC,000121.00,V,3438.8264,N,13545.3307,E,,,060180,,,N*50
00:20:08.676 $GNVTG,,T,,M,,N,,K,N*32
00:20:08.676 $GNZDA,000121.00,06,01,1980,,*7D
00:20:08.762 $L1BAT,4.313*2D
00:20:08.863 $L1MAG,0.00,0.00,562,562*36
00:20:09.676 $GPGGA,000122.00,3438.8264,N,13545.3307,E,0,00,2.0,0.0,M,0.0,M,,*5B
00:20:09.679 $GNGLL,3438.8264,N,13545.3307,E,000122.00,V,N*6B
00:20:09.679 $GNGSA,A,1,,,,,,,,,,,,,3.2,2.0,2.5*2A
00:20:09.681 $GNRMC,000122.00,V,3438.8264,N,13545.3307,E,,,060180,,,N*53
00:20:09.684 $GNVTG,,T,,M,,N,,K,N*32
00:20:09.684 $GNZDA,000122.00,06,01,1980,,*7E
00:20:09.758 $L1BAT,4.313*2D
00:20:09.835 $L1MAG,0.00,0.00,543,543*36
00:20:10.701 $GPGGA,000123.00,3438.8264,N,13545.3307,E,0,00,2.0,0.0,M,0.0,M,,*5A
00:20:10.704 $GNGLL,3438.8264,N,13545.3307,E,000123.00,V,N*6A
00:20:10.704 $GNGSA,A,1,,,,,,,,,,,,,3.2,2.0,2.5*2A
00:20:10.743 $GNRMC,000123.00,V,3438.8264,N,13545.3307,E,,,060180,,,N*52
00:20:10.780 $GNVTG,,T,,M,,N,,K,N*32
00:20:10.780 $GNZDA,000123.00,06,01,1980,,*7F
00:20:10.809 $L1BAT,4.313*2D
00:20:10.886 $L1MAG,0.00,0.00,611,611*36
00:20:11.654 $GPGGA,000124.00,3438.8264,N,13545.3307,E,0,00,2.0,0.0,M,0.0,M,,*5D
00:20:11.658 $GNGLL,3438.8264,N,13545.3307,E,000124.00,V,N*6D
00:20:11.658 $GNGSA,A,1,,,,,,,,,,,,,3.2,2.0,2.5*2A
00:20:11.661 $GPGSV,1,1,01,09,,,04,,,,,,,,,,,,*75
00:20:11.663 $GNRMC,000124.00,V,3438.8264,N,13545.3307,E,,,060180,,,N*55
00:20:11.663 $GNVTG,,T,,M,,N,,K,N*32
00:20:11.681 $GNZDA,000124.00,06,01,1980,,*78
00:20:11.757 $L1BAT,4.313*2D
00:20:11.865 $L1MAG,0.00,0.00,626,626*36
00:20:12.642 $GPGGA,000125.00,3438.8264,N,13545.3307,E,0,00,2.0,0.0,M,0.0,M,,*5C
00:20:12.664 $GNGLL,3438.8264,N,13545.3307,E,000125.00,V,N*6C
00:20:12.664 $GNGSA,A,1,,,,,,,,,,,,,3.2,2.0,2.5*2A
00:20:12.664 $GPGSV,1,1,01,09,,,10,,,,,,,,,,,,*70
00:20:12.664 $GNRMC,000125.00,V,3438.8264,N,13545.3307,E,,,060180,,,N*54
00:20:12.670 $GNVTG,,T,,M,,N,,K,N*32
00:20:12.681 $GNZDA,000125.00,06,01,1980,,*79
00:20:12.775 $L1BAT,4.313*2D
00:20:12.843 $L1MAG,0.00,0.00,468,468*36
00:20:13.660 $GPGGA,000126.00,3438.8264,N,13545.3307,E,0,00,2.0,0.0,M,0.0,M,,*5F
00:20:13.663 $GNGLL,3438.8264,N,13545.3307,E,000126.00,V,N*6F
00:20:13.663 $GNGSA,A,1,,,,,,,,,,,,,3.2,2.0,2.5*2A
00:20:13.664 $GNRMC,000126.00,V,3438.8264,N,13545.3307,E,,,060180,,,N*57
00:20:13.666 $GNVTG,,T,,M,,N,,K,N*32
00:20:13.666 $GNZDA,000126.00,06,01,1980,,*7A
00:20:13.751 $L1BAT,4.313*2D
00:20:13.908 $L1MAG,0.00,0.00,466,466*36
00:20:14.664 $GPGGA,000127.00,3438.8264,N,13545.3307,E,0,00,2.0,0.0,M,0.0,M,,*5E
00:20:14.669 $GNGLL,3438.8264,N,13545.3307,E,000127.00,V,N*6E
00:20:14.669 $GNGSA,A,1,,,,,,,,,,,,,3.2,2.0,2.5*2A
00:20:14.669 $GNRMC,000127.00,V,3438.8264,N,13545.3307,E,,,060180,,,N*56
00:20:14.669 $GNVTG,,T,,M,,N,,K,N*32
00:20:14.669 $GNZDA,000127.00,06,01,1980,,*7B
00:20:14.752 $L1BAT,4.313*2D
00:20:14.853 $L1MAG,0.00,0.00,495,495*36
00:20:15.661 $GPGGA,000128.00,3438.8264,N,13545.3307,E,0,00,2.0,0.0,M,0.0,M,,*51
00:20:15.733 $GNGLL,3438.8264,N,13545.3307,E,000128.00,V,N*61
00:20:15.733 $GNGSA,A,1,,,,,,,,,,,,,3.2,2.0,2.5*2A
00:20:15.733 $GNRMC,000128.00,V,3438.8264,N,13545.3307,E,,,060180,,,N*59
00:20:15.733 $GNVTG,,T,,M,,N,,K,N*32
00:20:15.733 $GNZDA,000128.00,06,01,1980,,*74
00:20:15.774 $L1BAT,4.313*2D
00:20:15.848 $L1MAG,0.00,0.00,558,558*36
00:20:16.643 $GPGGA,000129.00,3438.8264,N,13545.3307,E,0,00,2.0,0.0,M,0.0,M,,*50
00:20:16.652 $GNGLL,3438.8264,N,13545.3307,E,000129.00,V,N*60
00:20:16.652 $GNGSA,A,1,,,,,,,,,,,,,3.2,2.0,2.5*2A
00:20:16.673 $GNRMC,000129.00,V,3438.8264,N,13545.3307,E,,,060180,,,N*58
00:20:16.675 $GNVTG,,T,,M,,N,,K,N*32
00:20:16.675 $GNZDA,000129.00,06,01,1980,,*75
00:20:16.762 $L1BAT,4.313*2D
00:20:16.886 $L1MAG,0.00,0.00,488,488*36
00:20:17.663 $GPGGA,000130.00,3438.8264,N,13545.3307,E,0,00,2.0,0.0,M,0.0,M,,*58
00:20:17.664 $GNGLL,3438.8264,N,13545.3307,E,000130.00,V,N*68
00:20:17.664 $GNGSA,A,1,,,,,,,,,,,,,3.2,2.0,2.5*2A
00:20:17.665 $GQGSV,1,1,01,03,,,00,,,,,,,,,,,,*7A
00:20:17.667 $GNRMC,000130.00,V,3438.8264,N,13545.3307,E,,,060180,,,N*50
00:20:17.667 $GNVTG,,T,,M,,N,,K,N*32
00:20:17.671 $GNZDA,000130.00,06,01,1980,,*7D
00:20:17.747 $L1BAT,4.313*2D
00:20:17.884 $L1MAG,0.00,0.00,471,471*36
00:20:18.721 $GPGGA,000131.00,3438.8264,N,13545.3307,E,0,00,2.0,0.0,M,0.0,M,,*59
00:20:18.766 $GNGLL,3438.8264,N,13545.3307,E,000131.00,V,N*69
00:20:18.766 $GNGSA,A,1,,,,,,,,,,,,,3.2,2.0,2.5*2A
00:20:18.786 $GQGSV,1,1,01,03,,,06,,,,,,,,,,,,*7C
00:20:18.789 $GNRMC,000131.00,V,3438.8264,N,13545.3307,E,,,060180,,,N*51
00:20:18.789 $GNVTG,,T,,M,,N,,K,N*32
00:20:18.790 $GNZDA,000131.00,06,01,1980,,*7C
00:20:18.792 $L1BAT,4.313*2D
00:20:18.823 $L1MAG,0.00,0.00,372,372*36
00:20:19.645 $GPGGA,000132.00,3438.8264,N,13545.3307,E,0,00,2.0,0.0,M,0.0,M,,*5A
00:20:19.708 $GNGLL,3438.8264,N,13545.3307,E,000132.00,V,N*6A
00:20:19.708 $GNGSA,A,1,,,,,,,,,,,,,3.2,2.0,2.5*2A
00:20:19.712 $GQGSV,1,1,01,03,,,00,,,,,,,,,,,,*7A
00:20:19.712 $GNRMC,000132.00,V,3438.8264,N,13545.3307,E,,,060180,,,N*52
00:20:19.712 $GNVTG,,T,,M,,N,,K,N*32
00:20:19.713 $GNZDA,000132.00,06,01,1980,,*7F
00:20:19.775 $L1BAT,4.307*28
00:20:19.909 $L1MAG,0.00,0.00,293,293*36
00:20:20.644 $GPGGA,000133.00,3438.8264,N,13545.3307,E,0,00,2.0,0.0,M,0.0,M,,*5B
00:20:20.764 $GNGLL,3438.8264,N,13545.3307,E,000133.00,V,N*6B
00:20:20.764 $GNGSA,A,1,,,,,,,,,,,,,3.2,2.0,2.5*2A
00:20:20.767 $GNRMC,000133.00,V,3438.8264,N,13545.3307,E,,,060180,,,N*53
00:20:20.767 $GNVTG,,T,,M,,N,,K,N*32
00:20:20.767 $GNZDA,000133.00,06,01,1980,,*7E
00:20:20.860 $L1BAT,4.307*28
00:20:20.953 $L1MAG,0.00,0.00,576,576*36
00:20:21.689 $GPGGA,000134.00,3438.8264,N,13545.3307,E,0,00,2.0,0.0,M,0.0,M,,*5C
00:20:21.692 $GNGLL,3438.8264,N,13545.3307,E,000134.00,V,N*6C
00:20:21.692 $GNGSA,A,1,,,,,,,,,,,,,3.2,2.0,2.5*2A
00:20:21.737 $GNRMC,000134.00,V,3438.8264,N,13545.3307,E,,,060180,,,N*54
00:20:21.784 $GNVTG,,T,,M,,N,,K,N*32
00:20:21.784 $GNZDA,000134.00,06,01,1980,,*79
00:20:21.786 $L1BAT,4.307*28
00:20:21.844 $L1MAG,0.00,0.00,753,753*36
00:20:22.654 $GPGGA,000135.00,3438.8264,N,13545.3307,E,0,00,2.0,0.0,M,0.0,M,,*5D
00:20:22.696 $GNGLL,3438.8264,N,13545.3307,E,000135.00,V,N*6D
00:20:22.696 $GNGSA,A,1,,,,,,,,,,,,,3.2,2.0,2.5*2A
00:20:22.709 $GNRMC,000135.00,V,3438.8264,N,13545.3307,E,,,060180,,,N*55
00:20:22.711 $GNVTG,,T,,M,,N,,K,N*32
00:20:22.711 $GNZDA,000135.00,06,01,1980,,*78
00:20:22.754 $L1BAT,4.307*28
00:20:22.899 $L1MAG,0.00,0.00,716,716*36
00:20:23.725 $GPGGA,000136.00,3438.8264,N,13545.3307,E,0,00,2.0,0.0,M,0.0,M,,*5E
00:20:23.725 $GNGLL,3438.8264,N,13545.3307,E,000136.00,V,N*6E
00:20:23.725 $GNGSA,A,1,,,,,,,,,,,,,3.2,2.0,2.5*2A
00:20:23.774 $GPGSV,1,1,01,18,,,24,,,,,,,,,,,,*77
00:20:23.774 $GNRMC,000136.00,V,3438.8264,N,13545.3307,E,,,060180,,,N*56
00:20:23.823 $GNVTG,,T,,M,,N,,K,N*32
00:20:23.823 $GNZDA,000136.00,06,01,1980,,*7B
00:20:23.825 $L1BAT,4.307*28
00:20:23.880 $L1MAG,0.00,0.00,586,586*36
00:20:24.671 $GPGGA,000137.00,3438.8264,N,13545.3307,E,0,00,2.0,0.0,M,0.0,M,,*5F
00:20:24.672 $GNGLL,3438.8264,N,13545.3307,E,000137.00,V,N*6F
00:20:24.672 $GNGSA,A,1,,,,,,,,,,,,,3.2,2.0,2.5*2A
00:20:24.672 $GPGSV,1,1,01,18,,,11,,,,,,,,,,,,*71
00:20:24.723 $GNRMC,000137.00,V,3438.8264,N,13545.3307,E,,,060180,,,N*57
00:20:24.723 $GNVTG,,T,,M,,N,,K,N*32
00:20:24.723 $GNZDA,000137.00,06,01,1980,,*7A
00:20:24.787 $L1BAT,4.307*28
00:20:24.842 $L1MAG,0.00,0.00,615,615*36
00:20:25.644 $GPGGA,000138.00,3438.8264,N,13545.3307,E,0,00,2.0,0.0,M,0.0,M,,*50
00:20:25.661 $GNGLL,3438.8264,N,13545.3307,E,000138.00,V,N*60
00:20:25.661 $GNGSA,A,1,,,,,,,,,,,,,3.2,2.0,2.5*2A
00:20:25.661 $GPGSV,1,1,01,18,,,00,,,,,,,,,,,,*71
00:20:25.703 $GNRMC,000138.00,V,3438.8264,N,13545.3307,E,,,060180,,,N*58
00:20:25.703 $GNVTG,,T,,M,,N,,K,N*32
00:20:25.741 $GNZDA,000138.00,06,01,1980,,*75
00:20:25.777 $L1BAT,4.307*28
00:20:25.908 $L1MAG,0.00,0.00,643,643*36
00:20:26.645 $GPGGA,000139.00,3438.8264,N,13545.3307,E,0,00,2.0,0.0,M,0.0,M,,*51
00:20:26.652 $GNGLL,3438.8264,N,13545.3307,E,000139.00,V,N*61
00:20:26.652 $GNGSA,A,1,,,,,,,,,,,,,3.2,2.0,2.5*2A
00:20:26.666 $GPGSV,1,1,01,18,,,00,,,,,,,,,,,,*71
00:20:26.666 $GNRMC,000139.00,V,3438.8264,N,13545.3307,E,,,060180,,,N*59
00:20:26.674 $GNVTG,,T,,M,,N,,K,N*32
00:20:26.674 $GNZDA,000139.00,06,01,1980,,*74
00:20:26.750 $L1BAT,4.307*28
00:20:26.865 $L1MAG,0.00,0.00,399,399*36
00:20:27.705 $GPGGA,000140.00,3438.8264,N,13545.3307,E,0,00,2.0,0.0,M,0.0,M,,*5F
00:20:27.707 $GNGLL,3438.8264,N,13545.3307,E,000140.00,V,N*6F
00:20:27.707 $GNGSA,A,1,,,,,,,,,,,,,3.2,2.0,2.5*2A
00:20:27.707 $GPGSV,1,1,01,18,,,00,,,,,,,,,,,,*71
00:20:27.707 $GNRMC,000140.00,V,3438.8264,N,13545.3307,E,,,060180,,,N*57
00:20:27.707 $GNVTG,,T,,M,,N,,K,N*32
00:20:27.739 $GNZDA,000140.00,06,01,1980,,*7A
00:20:27.776 $L1BAT,4.307*28
00:20:27.851 $L1MAG,0.00,0.00,578,578*36
00:20:28.646 $GPGGA,000141.00,3438.8264,N,13545.3307,E,0,00,2.0,0.0,M,0.0,M,,*5E
00:20:28.656 $GNGLL,3438.8264,N,13545.3307,E,000141.00,V,N*6E
00:20:28.656 $GNGSA,A,1,,,,,,,,,,,,,3.2,2.0,2.5*2A
00:20:28.666 $GPGSV,1,1,01,18,,,00,,,,,,,,,,,,*71
00:20:28.666 $GNRMC,000141.00,V,3438.8264,N,13545.3307,E,,,060180,,,N*56
00:20:28.666 $GNVTG,,T,,M,,N,,K,N*32
00:20:28.674 $GNZDA,000141.00,06,01,1980,,*7B
00:20:28.756 $L1BAT,4.307*28
00:20:28.890 $L1MAG,0.00,0.00,675,675*36
00:20:29.653 $GPGGA,000142.00,3438.8264,N,13545.3307,E,0,00,2.0,0.0,M,0.0,M,,*5D
00:20:29.656 $GNGLL,3438.8264,N,13545.3307,E,000142.00,V,N*6D
00:20:29.656 $GNGSA,A,1,,,,,,,,,,,,,3.2,2.0,2.5*2A
00:20:29.661 $GPGSV,1,1,01,18,,,00,,,,,,,,,,,,*71
00:20:29.661 $GNRMC,000142.00,V,3438.8264,N,13545.3307,E,,,060180,,,N*55
00:20:29.672 $GNVTG,,T,,M,,N,,K,N*32
00:20:29.690 $GNZDA,000142.00,06,01,1980,,*78
00:20:29.767 $L1BAT,4.307*28
00:20:29.846 $L1MAG,0.00,0.00,723,723*36
00:20:30.690 $GPGGA,000143.00,3438.8264,N,13545.3307,E,0,00,2.0,0.0,M,0.0,M,,*5C
00:20:30.692 $GNGLL,3438.8264,N,13545.3307,E,000143.00,V,N*6C
00:20:30.692 $GNGSA,A,1,,,,,,,,,,,,,3.2,2.0,2.5*2A
00:20:30.730 $GPGSV,1,1,01,18,,,29,,,,,,,,,,,,*7A
00:20:30.766 $GNRMC,000143.00,V,3438.8264,N,13545.3307,E,,,060180,,,N*54
00:20:30.766 $GNVTG,,T,,M,,N,,K,N*32
00:20:30.802 $GNZDA,000143.00,06,01,1980,,*79
00:20:30.806 $L1BAT,4.307*28
00:20:30.816 $L1MAG,0.00,0.00,542,542*36
00:20:31.671 $GPGGA,000144.00,3438.8264,N,13545.3307,E,0,00,2.0,0.0,M,0.0,M,,*5B
00:20:31.674 $GNGLL,3438.8264,N,13545.3307,E,000144.00,V,N*6B
00:20:31.674 $GNGSA,A,1,,,,,,,,,,,,,3.2,2.0,2.5*2A
00:20:31.674 $GPGSV,1,1,01,18,,,37,,,,,,,,,,,,*75
00:20:31.674 $GNRMC,000144.00,V,3438.8264,N,13545.3307,E,,,060180,,,N*53
00:20:31.677 $GNVTG,,T,,M,,N,,K,N*32
00:20:31.677 $GNZDA,000144.00,06,01,1980,,*7E
00:20:31.765 $L1BAT,4.307*28
00:20:31.893 $L1MAG,0.00,0.00,590,590*36
00:20:32.656 $GPGGA,000145.00,3438.8264,N,13545.3307,E,0,00,2.0,0.0,M,0.0,M,,*5A
00:20:32.656 $GNGLL,3438.8264,N,13545.3307,E,000145.00,V,N*6A
00:20:32.658 $GNGSA,A,1,,,,,,,,,,,,,3.2,2.0,2.5*2A
00:20:32.661 $GPGSV,1,1,01,18,,,37,,,,,,,,,,,,*75
00:20:32.674 $GQGSV,1,1,02,02,,,32,56,,,31,,,,,,,,*78
00:20:32.674 $GNRMC,000145.00,V,3438.8264,N,13545.3307,E,,,060180,,,N*52
00:20:32.687 $GNVTG,,T,,M,,N,,K,N*32
00:20:32.695 $GNZDA,000145.00,06,01,1980,,*7F
00:20:32.772 $L1BAT,4.307*28
00:20:32.874 $L1MAG,0.00,0.00,613,613*36
00:20:33.685 $GPGGA,000146.00,3438.8264,N,13545.3307,E,0,00,2.0,0.0,M,0.0,M,,*59
00:20:33.687 $GNGLL,3438.8264,N,13545.3307,E,000146.00,V,N*69
00:20:33.687 $GNGSA,A,1,,,,,,,,,,,,,3.2,2.0,2.5*2A
00:20:33.726 $GPGSV,2,1,06,09,,,17,16,,,24,18,,,33,26,,,31*7D
00:20:33.743 $GPGSV,2,2,06,28,,,29,31,,,39,,,,,,,,*76
00:20:33.743 $GQGSV,1,1,02,02,,,35,56,,,35,,,,,,,,*7B
00:20:33.746 $GNRMC,000146.00,V,3438.8264,N,13545.3307,E,,,060180,,,N*51
00:20:33.746 $GNVTG,,T,,M,,N,,K,N*32
00:20:33.746 $GNZDA,000146.00,06,01,1980,,*7C
00:20:33.767 $L1BAT,4.307*28
00:20:33.831 $L1MAG,0.00,0.00,537,537*36
00:20:34.641 $GPGGA,000147.00,3438.8264,N,13545.3307,E,0,00,2.0,0.0,M,0.0,M,,*58
00:20:34.653 $GNGLL,3438.8264,N,13545.3307,E,000147.00,V,N*68
00:20:34.653 $GNGSA,A,1,,,,,,,,,,,,,3.2,2.0,2.5*2A
00:20:34.664 $GPGSV,2,1,06,09,,,23,16,,,33,18,,,32,26,,,34*78
00:20:34.676 $GPGSV,2,2,06,28,,,32,31,,,39,,,,,,,,*7C
00:20:34.676 $GQGSV,1,1,03,02,,,38,07,,,24,56,,,34,,,,*77
00:20:34.676 $GNRMC,000147.00,V,3438.8264,N,13545.3307,E,,,060180,,,N*50
00:20:34.676 $GNVTG,,T,,M,,N,,K,N*32
00:20:34.676 $GNZDA,000147.00,06,01,1980,,*7D
00:20:34.770 $L1BAT,4.307*28
00:20:34.906 $L1MAG,0.00,0.00,438,438*36
00:20:35.658 $GPGGA,000148.00,3438.8264,N,13545.3307,E,0,00,2.0,0.0,M,0.0,M,,*57
00:20:35.661 $GNGLL,3438.8264,N,13545.3307,E,000148.00,V,N*67
00:20:35.661 $GNGSA,A,1,,,,,,,,,,,,,3.2,2.0,2.5*2A
00:20:35.662 $GPGSV,2,1,06,09,,,19,16,,,30,18,,,33,26,,,33*74
00:20:35.665 $GPGSV,2,2,06,28,,,33,31,,,32,,,,,,,,*76
00:20:35.665 $GQGSV,1,1,03,02,,,33,07,,,23,56,,,35,,,,*7A
00:20:35.677 $GNRMC,000148.00,V,3438.8264,N,13545.3307,E,,,060180,,,N*5F
00:20:35.677 $GNVTG,,T,,M,,N,,K,N*32
00:20:35.677 $GNZDA,000148.00,06,01,1980,,*72
00:20:35.759 $L1BAT,4.307*28
00:20:35.898 $L1MAG,0.00,0.00,334,334*36
00:20:36.665 $GPGGA,000149.00,3438.8264,N,13545.3307,E,0,00,2.0,0.0,M,0.0,M,,*56
00:20:36.675 $GNGLL,3438.8264,N,13545.3307,E,000149.00,V,N*66
00:20:36.675 $GNGSA,A,1,,,,,,,,,,,,,3.2,2.0,2.5*2A
00:20:36.675 $GPGSV,2,1,06,09,,,20,16,,,28,18,,,36,26,,,40*76
00:20:36.675 $GPGSV,2,2,06,28,,,32,31,,,35,,,,,,,,*70
00:20:36.675 $GQGSV,1,1,02,02,,,36,07,,,26,,,,,,,,*7E
00:20:36.675 $GNRMC,000149.00,V,3438.8264,N,13545.3307,E,,,060180,,,N*5E
00:20:36.685 $GNVTG,,T,,M,,N,,K,N*32
00:20:36.685 $GNZDA,000149.00,06,01,1980,,*73
00:20:36.777 $L1BAT,4.307*28
00:20:36.824 $L1MAG,0.00,0.00,601,601*36
00:20:37.655 $GPGGA,000150.00,3438.8264,N,13545.3307,E,0,00,2.0,0.0,M,0.0,M,,*5E
00:20:37.659 $GNGLL,3438.8264,N,13545.3307,E,000150.00,V,N*6E
00:20:37.659 $GNGSA,A,1,,,,,,,,,,,,,3.2,2.0,2.5*2A
00:20:37.663 $GPGSV,2,1,06,09,,,21,16,,,29,18,,,32,26,,,39*7C
00:20:37.675 $GPGSV,2,2,06,28,,,36,31,,,36,,,,,,,,*77
00:20:37.675 $GQGSV,1,1,02,02,,,36,07,,,29,,,,,,,,*71
00:20:37.683 $GNRMC,000150.00,V,3438.8264,N,13545.3307,E,,,060180,,,N*56
00:20:37.693 $GNVTG,,T,,M,,N,,K,N*32
00:20:37.693 $GNZDA,000150.00,06,01,1980,,*7B
00:20:37.779 $L1BAT,4.307*28
00:20:37.927 $L1MAG,0.00,0.00,747,747*36
00:20:38.666 $GPGGA,000151.00,3438.8264,N,13545.3307,E,0,00,2.0,0.0,M,0.0,M,,*5F
00:20:38.669 $GNGLL,3438.8264,N,13545.3307,E,000151.00,V,N*6F
00:20:38.671 $GNGSA,A,1,,,,,,,,,,,,,3.2,2.0,2.5*2A
00:20:38.712 $GPGSV,2,1,07,09,,,20,16,,,26,18,,,29,26,,,42*75
00:20:38.750 $GPGSV,2,2,07,27,,,31,28,,,38,31,,,39,,,,*70
00:20:38.750 $GQGSV,1,1,02,02,,,38,07,,,33,,,,,,,,*74
00:20:38.786 $GNRMC,000151.00,V,3438.8264,N,13545.3307,E,,,060180,,,N*57
00:20:38.825 $GNVTG,,T,,M,,N,,K,N*32
00:20:38.825 $GNZDA,000151.00,06,01,1980,,*7A
00:20:38.862 $L1BAT,4.307*28
00:20:38.865 $L1MAG,0.00,0.00,722,722*36
00:20:39.651 $GPGGA,000152.00,3438.8264,N,13545.3307,E,0,00,2.0,0.0,M,0.0,M,,*5C
00:20:39.653 $GNGLL,3438.8264,N,13545.3307,E,000152.00,V,N*6C
00:20:39.653 $GNGSA,A,1,,,,,,,,,,,,,3.2,2.0,2.5*2A
00:20:39.665 $GPGSV,2,1,07,09,,,20,16,,,27,18,,,37,26,,,43*7A
00:20:39.675 $GPGSV,2,2,07,27,,,37,28,,,37,31,,,37,,,,*77
00:20:39.675 $GQGSV,1,1,03,02,,,38,07,,,29,56,,,25,,,,*7A
00:20:39.675 $GNRMC,000152.00,V,3438.8264,N,13545.3307,E,,,060180,,,N*54
00:20:39.675 $GNVTG,,T,,M,,N,,K,N*32
00:20:39.675 $GNZDA,000152.00,06,01,1980,,*79
00:20:39.770 $L1BAT,4.307*28
00:20:39.846 $L1MAG,0.00,0.00,731,731*36
00:20:40.702 $GPGGA,000153.00,3438.8264,N,13545.3307,E,0,00,2.0,0.0,M,0.0,M,,*5D
00:20:40.704 $GNGLL,3438.8264,N,13545.3307,E,000153.00,V,N*6D
00:20:40.704 $GNGSA,A,1,,,,,,,,,,,,,3.2,2.0,2.5*2A
00:20:40.704 $GPGSV,2,1,07,09,,,21,16,,,30,18,,,35,26,,,41*7D
00:20:40.704 $GPGSV,2,2,07,27,,,36,28,,,35,31,,,42,,,,*76
00:20:40.704 $GQGSV,1,1,03,02,,,38,07,,,26,56,,,30,,,,*71
00:20:40.704 $GNRMC,000153.00,V,3438.8264,N,13545.3307,E,,,060180,,,N*55
00:20:40.708 $GNVTG,,T,,M,,N,,K,N*32
00:20:40.709 $GNZDA,000153.00,06,01,1980,,*78
00:20:40.759 $L1BAT,4.307*28
00:20:40.916 $L1MAG,0.00,0.00,739,739*36
00:20:41.645 $GPGGA,000154.00,3438.8264,N,13545.3307,E,0,00,2.0,0.0,M,0.0,M,,*5A
00:20:41.716 $GNGLL,3438.8264,N,13545.3307,E,000154.00,V,N*6A
00:20:41.716 $GNGSA,A,1,,,,,,,,,,,,,3.2,2.0,2.5*2A
00:20:41.717 $GPGSV,2,1,07,09,,,18,16,,,29,18,,,31,26,,,40*7A
00:20:41.747 $GPGSV,2,2,07,27,,,37,28,,,36,31,,,43,,,,*75
00:20:41.747 $GQGSV,1,1,03,02,,,39,07,,,27,56,,,42,,,,*74
00:20:41.749 $GNRMC,000154.00,V,3438.8264,N,13545.3307,E,,,060180,,,N*52
00:20:41.752 $GNVTG,,T,,M,,N,,K,N*32
00:20:41.754 $GNZDA,000154.00,06,01,1980,,*7F
00:20:41.755 $L1BAT,4.307*28
00:20:41.849 $L1MAG,0.00,0.00,755,755*36
00:20:42.673 $GPGGA,000155.00,3438.8264,N,13545.3307,E,0,00,2.0,0.0,M,0.0,M,,*5B
00:20:42.673 $GNGLL,3438.8264,N,13545.3307,E,000155.00,V,N*6B
00:20:42.673 $GNGSA,A,1,,,,,,,,,,,,,3.2,2.0,2.5*2A
00:20:42.673 $GPGSV,2,1,07,09,,,20,16,,,30,18,,,33,26,,,40*7B
00:20:42.675 $GPGSV,2,2,07,27,,,38,28,,,37,31,,,43,,,,*7B
00:20:42.675 $GQGSV,1,1,03,02,,,38,07,,,29,56,,,40,,,,*79
00:20:42.677 $GNRMC,000155.00,V,3438.8264,N,13545.3307,E,,,060180,,,N*53
00:20:42.685 $GNVTG,,T,,M,,N,,K,N*32
00:20:42.693 $GNZDA,000155.00,06,01,1980,,*7E
00:20:42.771 $L1BAT,4.307*28
00:20:42.823 $L1MAG,0.00,0.00,769,769*36
00:20:43.663 $GPGGA,000156.00,3438.8264,N,13545.3307,E,0,00,2.0,0.0,M,0.0,M,,*58
00:20:43.666 $GNGLL,3438.8264,N,13545.3307,E,000156.00,V,N*68
00:20:43.666 $GNGSA,A,1,,,,,,,,,,,,,3.2,2.0,2.5*2A
00:20:43.666 $GPGSV,2,1,07,09,,,20,16,,,31,18,,,34,26,,,40*7D
00:20:43.669 $GPGSV,2,2,07,27,,,38,28,,,35,31,,,43,,,,*79
00:20:43.669 $GQGSV,1,1,03,02,,,39,07,,,29,56,,,40,,,,*78
00:20:43.679 $GNRMC,000156.00,V,3438.8264,N,13545.3307,E,,,060180,,,N*50
00:20:43.691 $GNVTG,,T,,M,,N,,K,N*32
00:20:43.699 $GNZDA,000156.00,06,01,1980,,*7D
00:20:43.788 $L1BAT,4.307*28
00:20:43.924 $L1MAG,0.00,0.00,754,754*36
00:20:44.650 $GPGGA,000157.00,3438.8264,N,13545.3307,E,0,00,2.0,0.0,M,0.0,M,,*59
00:20:44.693 $GNGLL,3438.8264,N,13545.3307,E,000157.00,V,N*69
00:20:44.693 $GNGSA,A,1,,,,,,,,,,,,,3.2,2.0,2.5*2A
00:20:44.740 $GPGSV,2,1,07,09,,,16,16,,,31,18,,,32,26,,,42*7C
00:20:44.741 $GPGSV,2,2,07,27,,,37,28,,,38,31,,,37,,,,*78
00:20:44.741 $GQGSV,1,1,03,02,,,38,07,,,27,56,,,40,,,,*77
00:20:44.742 $GNRMC,000157.00,V,3438.8264,N,13545.3307,E,,,060180,,,N*51
00:20:44.745 $GNVTG,,T,,M,,N,,K,N*32
00:20:44.746 $GNZDA,000157.00,06,01,1980,,*7C
00:20:44.789 $L1BAT,4.307*28
00:20:44.929 $L1MAG,0.00,0.00,728,728*36
00:20:45.692 $GPGGA,000158.00,3438.8264,N,13545.3307,E,0,00,2.0,0.0,M,0.0,M,,*56
00:20:45.693 $GNGLL,3438.8264,N,13545.3307,E,000158.00,V,N*66
00:20:45.693 $GNGSA,A,1,,,,,,,,,,,,,3.2,2.0,2.5*2A
00:20:45.733 $GPGSV,2,1,07,09,,,17,16,,,31,18,,,31,26,,,41*7D
00:20:45.769 $GPGSV,2,2,07,27,,,37,28,,,37,31,,,38,,,,*78
00:20:45.769 $GQGSV,1,1,03,02,,,38,07,,,27,56,,,40,,,,*77
00:20:45.769 $GNRMC,000158.00,V,3438.8264,N,13545.3307,E,,,060180,,,N*5E
00:20:45.773 $GNVTG,,T,,M,,N,,K,N*32
00:20:45.773 $GNZDA,000158.00,06,01,1980,,*73
00:20:45.776 $L1BAT,4.307*28
00:20:45.833 $L1MAG,0.00,0.00,761,761*36
00:20:46.662 $GPGGA,000159.00,3438.8264,N,13545.3307,E,0,00,2.0,0.0,M,0.0,M,,*57
00:20:46.664 $GNGLL,3438.8264,N,13545.3307,E,000159.00,V,N*67
00:20:46.664 $GNGSA,A,1,,,,,,,,,,,,,3.2,2.0,2.5*2A
00:20:46.666 $GPGSV,2,1,07,09,,,17,16,,,34,18,,,34,26,,,39*72
00:20:46.668 $GPGSV,2,2,07,27,,,36,28,,,39,31,,,36,,,,*79
00:20:46.668 $GQGSV,1,1,03,02,,,37,07,,,28,56,,,40,,,,*77
00:20:46.670 $GNRMC,000159.00,V,3438.8264,N,13545.3307,E,,,060180,,,N*5F
00:20:46.674 $GNVTG,,T,,M,,N,,K,N*32
00:20:46.693 $GNZDA,000159.00,06,01,1980,,*72
00:20:46.800 $L1BAT,4.307*28
00:20:46.897 $L1MAG,0.00,0.00,715,715*36
00:20:47.667 $GPGGA,000200.00,3438.8264,N,13545.3307,E,0,00,2.0,0.0,M,0.0,M,,*58
00:20:47.669 $GNGLL,3438.8264,N,13545.3307,E,000200.00,V,N*68
00:20:47.669 $GNGSA,A,1,,,,,,,,,,,,,3.2,2.0,2.5*2A
00:20:47.671 $GPGSV,2,1,07,09,,,18,16,,,33,18,,,41,26,,,36*77
00:20:47.673 $GPGSV,2,2,07,27,,,36,28,,,34,31,,,37,,,,*75
00:20:47.673 $GQGSV,1,1,03,02,,,35,07,,,28,56,,,37,,,,*75
00:20:47.676 $GNRMC,000200.00,V,3438.8264,N,13545.3307,E,,,060180,,,N*50
00:20:47.678 $GNVTG,,T,,M,,N,,K,N*32
00:20:47.678 $GNZDA,000200.00,06,01,1980,,*7D
00:20:47.773 $L1BAT,4.307*28
00:20:47.864 $L1MAG,0.00,0.00,705,705*36
00:20:48.672 $GPGGA,000201.00,3438.8264,N,13545.3307,E,0,00,2.0,0.0,M,0.0,M,,*59
00:20:48.675 $GNGLL,3438.8264,N,13545.3307,E,000201.00,V,N*69
00:20:48.675 $GNGSA,A,1,,,,,,,,,,,,,3.2,2.0,2.5*2A
00:20:48.699 $GPGSV,2,1,06,16,,,30,18,,,35,26,,,35,27,,,35*76
00:20:48.701 $GPGSV,2,2,06,28,,,34,31,,,36,,,,,,,,*75
00:20:48.701 $GQGSV,1,1,03,02,,,35,07,,,28,56,,,37,,,,*75
00:20:48.703 $GNRMC,000201.00,V,3438.8264,N,13545.3307,E,,,060180,,,N*51
00:20:48.706 $GNVTG,,T,,M,,N,,K,N*32
00:20:48.706 $GNZDA,000201.00,06,01,1980,,*7C
00:20:48.761 $L1BAT,4.307*28
00:20:48.821 $L1MAG,0.00,0.00,712,712*36
00:20:49.665 $GPGGA,000202.00,3438.8264,N,13545.3307,E,0,00,2.0,0.0,M,0.0,M,,*5A
00:20:49.665 $GNGLL,3438.8264,N,13545.3307,E,000202.00,V,N*6A
00:20:49.665 $GNGSA,A,1,,,,,,,,,,,,,3.2,2.0,2.5*2A
00:20:49.703 $GPGSV,2,1,06,16,,,31,18,,,31,26,,,36,27,,,35*70
00:20:49.740 $GPGSV,2,2,06,28,,,36,31,,,38,,,,,,,,*79
00:20:49.740 $GQGSV,1,1,04,02,,,37,03,,,29,07,,,27,56,,,40*77
00:20:49.780 $GNRMC,000202.00,V,3438.8264,N,13545.3307,E,,,060180,,,N*52
00:20:49.814 $GNVTG,,T,,M,,N,,K,N*32
00:20:49.847 $GNZDA,000202.00,06,01,1980,,*7F
00:20:49.847 $L1BAT,4.307*28
00:20:49.899 $L1MAG,0.00,0.00,744,744*36
00:20:50.648 $GPGGA,000203.00,3438.8264,N,13545.3307,E,0,00,2.0,0.0,M,0.0,M,,*5B
00:20:50.650 $GNGLL,3438.8264,N,13545.3307,E,000203.00,V,N*6B
00:20:50.659 $GNGSA,A,1,,,,,,,,,,,,,3.2,2.0,2.5*2A
00:20:50.671 $GPGSV,2,1,06,16,,,33,18,,,30,26,,,42,27,,,36*73
00:20:50.671 $GPGSV,2,2,06,28,,,37,31,,,37,,,,,,,,*77
00:20:50.671 $GQGSV,1,1,04,02,,,38,03,,,22,07,,,30,56,,,39*7B
00:20:50.687 $GNRMC,000203.00,V,3438.8264,N,13545.3307,E,,,060180,,,N*53
00:20:50.687 $GNVTG,,T,,M,,N,,K,N*32
00:20:50.694 $GNZDA,000203.00,06,01,1980,,*7E
00:20:50.774 $L1BAT,4.307*28
00:20:50.849 $L1MAG,0.00,0.00,745,745*36
00:20:51.660 $GPGGA,000204.00,3438.8264,N,13545.3307,E,0,00,2.0,0.0,M,0.0,M,,*5C
00:20:51.663 $GNGLL,3438.8264,N,13545.3307,E,000204.00,V,N*6C
00:20:51.663 $GNGSA,A,1,,,,,,,,,,,,,3.2,2.0,2.5*2A
00:20:51.664 $GPGSV,2,1,06,16,,,37,18,,,40,26,,,43,27,,,32*75
00:20:51.667 $GPGSV,2,2,06,28,,,37,31,,,34,,,,,,,,*74
00:20:51.667 $GQGSV,1,1,04,02,,,36,03,,,25,07,,,26,56,,,38*74
00:20:51.677 $GNRMC,000204.00,V,3438.8264,N,13545.3307,E,,,060180,,,N*54
00:20:51.677 $GNVTG,,T,,M,,N,,K,N*32
00:20:51.677 $GNZDA,000204.00,06,01,1980,,*79
00:20:51.763 $L1BAT,4.307*28
00:20:51.866 $L1MAG,0.00,0.00,769,769*36
00:20:52.651 $GPGGA,000205.00,3438.8264,N,13545.3307,E,0,00,2.0,0.0,M,0.0,M,,*5D
00:20:52.653 $GNGLL,3438.8264,N,13545.3307,E,000205.00,V,N*6D
00:20:52.653 $GNGSA,A,1,,,,,,,,,,,,,3.2,2.0,2.5*2A
00:20:52.691 $GPGSV,2,1,06,16,,,37,18,,,35,26,,,43,27,,,32*77
00:20:52.730 $GPGSV,2,2,06,28,,,34,31,,,36,,,,,,,,*75
00:20:52.730 $GQGSV,1,1,04,02,,,35,03,,,24,07,,,24,56,,,37*7B
00:20:52.750 $GNRMC,000205.00,V,3438.8264,N,13545.3307,E,,,060180,,,N*55
00:20:52.751 $GNVTG,,T,,M,,N,,K,N*32
00:20:52.754 $GNZDA,000205.00,06,01,1980,,*78
00:20:52.762 $L1BAT,4.307*28
00:20:52.888 $L1MAG,0.00,0.00,796,796*36
00:20:53.653 $GPGGA,000206.00,3438.8264,N,13545.3307,E,0,00,2.0,0.0,M,0.0,M,,*5E
00:20:53.662 $GNGLL,3438.8264,N,13545.3307,E,000206.00,V,N*6E
00:20:53.662 $GNGSA,A,1,,,,,,,,,,,,,3.2,2.0,2.5*2A
00:20:53.664 $GPGSV,2,1,07,04,,,26,16,,,42,18,,,34,26,,,37*72
00:20:53.671 $GPGSV,2,2,07,27,,,34,28,,,36,31,,,38,,,,*7A
00:20:53.671 $GQGSV,1,1,04,02,,,35,03,,,25,07,,,24,56,,,37*7A
00:20:53.691 $GNRMC,000206.00,V,3438.8264,N,13545.3307,E,,,060180,,,N*56
00:20:53.691 $GNVTG,,T,,M,,N,,K,N*32
00:20:53.691 $GNZDA,000206.00,06,01,1980,,*7B
00:20:53.775 $L1BAT,4.307*28
00:20:53.853 $L1MAG,0.00,0.00,794,794*36
00:20:54.662 $GPGGA,000207.00,3438.8264,N,13545.3307,E,0,00,2.0,0.0,M,0.0,M,,*5F
00:20:54.664 $GNGLL,3438.8264,N,13545.3307,E,000207.00,V,N*6F
00:20:54.664 $GNGSA,A,1,,,,,,,,,,,,,3.2,2.0,2.5*2A
00:20:54.664 $GPGSV,2,1,07,04,,,26,16,,,43,18,,,32,26,,,37*75
00:20:54.668 $GPGSV,2,2,07,27,,,33,28,,,35,31,,,41,,,,*70
00:20:54.668 $GQGSV,1,1,04,02,,,37,03,,,26,07,,,25,56,,,38*75
00:20:54.668 $GNRMC,000207.00,V,3438.8264,N,13545.3307,E,,,060180,,,N*57
00:20:54.686 $GNVTG,,T,,M,,N,,K,N*32
00:20:54.693 $GNZDA,000207.00,06,01,1980,,*7A
00:20:54.785 $L1BAT,4.307*28
00:20:54.853 $L1MAG,0.00,0.00,802,802*36
00:20:55.667 $GPGGA,000208.00,3438.8264,N,13545.3307,E,0,00,2.0,0.0,M,0.0,M,,*50
00:20:55.671 $GNGLL,3438.8264,N,13545.3307,E,000208.00,V,N*60
00:20:55.671 $GNGSA,A,1,,,,,,,,,,,,,3.2,2.0,2.5*2A
00:20:55.673 $GPGSV,2,1,07,04,,,28,16,,,41,18,,,33,26,,,37*78
00:20:55.673 $GPGSV,2,2,07,27,,,35,28,,,37,31,,,38,,,,*7A
00:20:55.673 $GQGSV,1,1,04,02,,,37,03,,,28,07,,,24,56,,,40*75
00:20:55.675 $GNRMC,000208.00,V,3438.8264,N,13545.3307,E,,,060180,,,N*58
00:20:55.679 $GNVTG,,T,,M,,N,,K,N*32
00:20:55.679 $GNZDA,000208.00,06,01,1980,,*75
00:20:55.777 $L1BAT,4.307*28
00:20:55.929 $L1MAG,0.00,0.00,847,847*36
00:20:56.656 $GPGGA,000209.00,3438.8264,N,13545.3307,E,0,00,2.0,0.0,M,0.0,M,,*51
00:20:56.679 $GNGLL,3438.8264,N,13545.3307,E,000209.00,V,N*61
00:20:56.679 $GNGSA,A,1,,,,,,,,,,,,,3.2,2.0,2.5*2A
00:20:56.679 $GPGSV,2,1,07,04,,,29,16,,,39,18,,,33,26,,,39*78
00:20:56.679 $GPGSV,2,2,07,27,,,34,28,,,35,31,,,37,,,,*76
00:20:56.679 $GQGSV,1,1,04,02,,,35,03,,,27,07,,,25,56,,,36*78
00:20:56.712 $GNRMC,000209.00,V,3438.8264,N,13545.3307,E,,,060180,,,N*59
00:20:56.712 $GNVTG,,T,,M,,N,,K,N*32
00:20:56.713 $GNZDA,000209.00,06,01,1980,,*74
00:20:56.765 $L1BAT,4.307*28
00:20:56.868 $L1MAG,0.00,0.00,840,840*36
00:20:57.684 $GPGGA,000210.00,3438.8264,N,13545.3307,E,0,00,2.0,0.0,M,0.0,M,,*59
00:20:57.684 $GNGLL,3438.8264,N,13545.3307,E,000210.00,V,N*69
00:20:57.684 $GNGSA,A,1,,,,,,,,,,,,,3.2,2.0,2.5*2A
00:20:57.720 $GPGSV,2,1,07,04,,,35,16,,,38,18,,,33,26,,,39*74
00:20:57.758 $GPGSV,2,2,07,27,,,34,28,,,34,31,,,36,,,,*76
00:20:57.758 $GQGSV,1,1,04,02,,,36,03,,,27,07,,,25,56,,,38*75
00:20:57.794 $GNRMC,000210.00,V,3438.8264,N,13545.3307,E,,,060180,,,N*51
00:20:57.832 $GNVTG,,T,,M,,N,,K,N*32
00:20:57.858 $GNZDA,000210.00,06,01,1980,,*7C
00:20:57.860 $L1BAT,4.307*28
00:20:57.861 $L1MAG,0.00,0.00,830,830*36
00:20:58.651 $GPGGA,000211.00,3438.8264,N,13545.3307,E,0,00,2.0,0.0,M,0.0,M,,*58
00:20:58.660 $GNGLL,3438.8264,N,13545.3307,E,000211.00,V,N*68
00:20:58.660 $GNGSA,A,1,,,,,,,,,,,,,3.2,2.0,2.5*2A
00:20:58.675 $GPGSV,2,1,07,04,,,33,16,,,35,18,,,35,26,,,40*77
00:20:58.675 $GPGSV,2,2,07,27,,,34,28,,,34,31,,,36,,,,*76
00:20:58.675 $GQGSV,1,1,04,02,,,36,03,,,27,07,,,25,56,,,38*75
00:20:58.685 $GNRMC,000211.00,V,3438.8264,N,13545.3307,E,,,060180,,,N*50
00:20:58.685 $GNVTG,,T,,M,,N,,K,N*32
00:20:58.697 $GNZDA,000211.00,06,01,1980,,*7D
00:20:58.776 $L1BAT,4.307*28
00:20:58.926 $L1MAG,0.00,0.00,824,824*36
00:20:59.669 $GPGGA,000212.00,3438.8264,N,13545.3307,E,0,00,2.0,0.0,M,0.0,M,,*5B
00:20:59.674 $GNGLL,3438.8264,N,13545.3307,E,000212.00,V,N*6B
00:20:59.674 $GNGSA,A,1,,,,,,,,,,,,,3.2,2.0,2.5*2A
00:20:59.674 $GPGSV,2,1,07,04,,,34,16,,,35,18,,,32,26,,,38*78
00:20:59.677 $GPGSV,2,2,07,27,,,33,28,,,34,31,,,36,,,,*71
00:20:59.677 $GQGSV,1,1,04,02,,,36,03,,,26,07,,,25,56,,,39*75
00:20:59.677 $GNRMC,000212.00,V,3438.8264,N,13545.3307,E,,,060180,,,N*53
00:20:59.681 $GNVTG,,T,,M,,N,,K,N*32
00:20:59.681 $GNZDA,000212.00,06,01,1980,,*7E
00:20:59.766 $L1BAT,4.307*28
00:20:59.892 $L1MAG,0.00,0.00,810,810*36
00:21:00.676 $GPGGA,000213.00,3438.8264,N,13545.3307,E,0,00,2.0,0.0,M,0.0,M,,*5A
00:21:00.680 $GNGLL,3438.8264,N,13545.3307,E,000213.00,V,N*6A
00:21:00.680 $GNGSA,A,1,,,,,,,,,,,,,3.2,2.0,2.5*2A
00:21:00.713 $GPGSV,2,1,07,04,,,33,16,,,39,18,,,33,26,,,35*7F
00:21:00.750 $GPGSV,2,2,07,27,,,35,28,,,34,31,,,37,,,,*76
00:21:00.750 $GQGSV,1,1,04,02,,,36,03,,,27,07,,,26,56,,,39*77
00:21:00.767 $GNRMC,000213.00,V,3438.8264,N,13545.3307,E,,,060180,,,N*52
00:21:00.768 $GNVTG,,T,,M,,N,,K,N*32
00:21:00.771 $GNZDA,000213.00,06,01,1980,,*7F
00:21:00.772 $L1BAT,4.307*28
00:21:00.853 $L1MAG,0.00,0.00,791,791*36
00:21:01.651 $GPGGA,000214.00,3438.8264,N,13545.3307,E,0,00,2.0,0.0,M,0.0,M,,*5D
00:21:01.654 $GNGLL,3438.8264,N,13545.3307,E,000214.00,V,N*6D
00:21:01.654 $GNGSA,A,1,,,,,,,,,,,,,3.2,2.0,2.5*2A
00:21:01.658 $GPGSV,2,1,07,04,,,29,16,,,43,18,,,33,26,,,34*78
00:21:01.670 $GPGSV,2,2,07,27,,,35,28,,,30,31,,,43,,,,*71
00:21:01.670 $GQGSV,1,1,04,02,,,41,03,,,30,07,,,29,56,,,42*72
00:21:01.679 $GNRMC,000214.00,V,3438.8264,N,13545.3307,E,,,060180,,,N*55
00:21:01.679 $GNVTG,,T,,M,,N,,K,N*32
00:21:01.679 $GNZDA,000214.00,06,01,1980,,*78
00:21:01.770 $L1BAT,4.307*28
00:21:01.906 $L1MAG,0.00,0.00,848,848*36
00:21:02.665 $GPGGA,000215.00,3438.8264,N,13545.3307,E,0,00,2.0,0.0,M,0.0,M,,*5C
00:21:02.668 $GNGLL,3438.8264,N,13545.3307,E,000215.00,V,N*6C
00:21:02.668 $GNGSA,A,1,,,,,,,,,,,,,3.2,2.0,2.5*2A
00:21:02.668 $GPGSV,2,1,08,04,,,27,16,,,42,18,,,33,26,,,34*78
00:21:02.669 $GPGSV,2,2,08,27,,,34,28,,,30,29,,,27,31,,,42*70
00:21:02.672 $GQGSV,1,1,04,02,,,40,03,,,30,07,,,29,56,,,42*73
00:21:02.672 $GNRMC,000215.00,V,3438.8264,N,13545.3307,E,,,060180,,,N*54
00:21:02.689 $GNVTG,,T,,M,,N,,K,N*32
00:21:02.699 $GNZDA,000215.00,06,01,1980,,*79
00:21:02.791 $L1BAT,4.307*28
00:21:02.859 $L1MAG,0.00,0.00,885,885*36
00:21:04.121 $GPGGA,152102.00,3438.8264,N,13545.3307,E,0,00,2.0,0.0,M,0.0,M,,*5F
00:21:04.123 $GNGLL,3438.8264,N,13545.3307,E,152102.00,V,N*6F
00:21:04.123 $GNGSA,A,1,,,,,,,,,,,,,3.2,2.0,2.5*2A
00:21:04.123 $GPGSV,2,1,08,04,,,29,16,,,41,18,,,34,26,,,40*71
00:21:04.126 $GPGSV,2,2,08,27,,,33,28,,,32,29,,,26,31,,,41*77
00:21:04.127 $GQGSV,1,1,04,02,,,39,03,,,30,07,,,29,56,,,41*7E
00:21:04.127 $GNRMC,152102.00,V,3438.8264,N,13545.3307,E,,,050726,8.2,W,N*2D
00:21:04.133 $GNVTG,,T,,M,,N,,K,N*32
00:21:04.144 $GNZDA,152102.00,05,07,2026,,*79
00:21:04.265 $L1BAT,4.307*28
00:21:04.328 $L1MAG,0.00,0.00,855,855*36
00:21:05.125 $GPGGA,152103.00,3438.8264,N,13545.3307,E,0,00,2.0,0.0,M,0.0,M,,*5E
00:21:05.129 $GNGLL,3438.8264,N,13545.3307,E,152103.00,V,N*6E
00:21:05.129 $GNGSA,A,1,,,,,,,,,,,,,3.2,2.0,2.5*2A
00:21:05.166 $GPGSV,3,1,10,04,35,296,34,08,14,219,,09,11,319,,16,59,310,32*7F
00:21:05.175 $GPGSV,3,2,10,18,,,35,26,,,41,27,,,35,28,,,35*78
00:21:05.178 $GPGSV,3,3,10,29,,,30,31,,,38,,,,,,,,*79
00:21:05.178 $GQGSV,1,1,04,02,,,37,03,,,32,07,,,29,56,,,40*73
00:21:05.180 $GNRMC,152103.00,V,3438.8264,N,13545.3307,E,,,050726,8.2,W,N*2C
00:21:05.182 $GNVTG,,T,,M,,N,,K,N*32
00:21:05.184 $GNZDA,152103.00,05,07,2026,,*78
00:21:05.237 $L1BAT,4.307*28
00:21:05.365 $L1MAG,0.00,0.00,852,852*36
00:21:06.106 $GPGGA,152104.00,3438.8264,N,13545.3307,E,0,00,2.0,0.0,M,0.0,M,,*59
00:21:06.109 $GNGLL,3438.8264,N,13545.3307,E,152104.00,V,N*69
00:21:06.109 $GNGSA,A,1,,,,,,,,,,,,,3.2,2.0,2.5*2A
00:21:06.111 $GPGSV,3,1,11,04,35,296,32,08,14,219,,09,11,319,,16,59,310,44*79
00:21:06.125 $GPGSV,3,2,11,18,25,083,36,26,63,020,37,27,47,213,34,28,38,124,34*7F
00:21:06.131 $GPGSV,3,3,11,29,09,040,30,31,66,107,41,32,00,168,,,,,*43
00:21:06.131 $GQGSV,1,1,04,02,,,39,03,,,29,07,48,195,28,56,,,40*47
00:21:06.147 $GNRMC,152104.00,V,3438.8264,N,13545.3307,E,,,050726,8.2,W,N*2B
00:21:06.147 $GNVTG,,T,,M,,N,,K,N*32
00:21:06.147 $GNZDA,152104.00,05,07,2026,,*7F
00:21:06.235 $L1BAT,4.307*28
00:21:06.301 $L1MAG,0.00,0.00,848,848*36
00:21:07.115 $GPGGA,152105.00,3438.8264,N,13545.3307,E,0,00,2.0,0.0,M,0.0,M,,*58
00:21:07.119 $GNGLL,3438.8264,N,13545.3307,E,152105.00,V,N*68
00:21:07.119 $GNGSA,A,1,,,,,,,,,,,,,3.2,2.0,2.5*2A
00:21:07.121 $GPGSV,3,1,11,04,35,296,34,08,14,219,00,09,11,319,,16,59,310,41*7A
00:21:07.124 $GPGSV,3,2,11,18,25,083,35,26,63,020,39,27,47,213,33,28,38,124,34*75
00:21:07.128 $GPGSV,3,3,11,29,09,040,29,31,66,107,42,32,00,168,,,,,*48
00:21:07.165 $GQGSV,1,1,04,02,,,40,03,,,27,07,48,195,29,61,,,31*44
00:21:07.202 $GNRMC,152105.00,V,3438.8264,N,13545.3307,E,,,050726,8.2,W,N*2A
00:21:07.240 $GNVTG,,T,,M,,N,,K,N*32
00:21:07.240 $GNZDA,152105.00,05,07,2026,,*7E
00:21:07.315 $L1BAT,4.307*28
00:21:07.342 $L1MAG,0.00,0.00,863,863*36
00:21:08.101 $GPGGA,152106.00,3438.8264,N,13545.3307,E,0,00,2.0,0.0,M,0.0,M,,*5B
00:21:08.143 $GNGLL,3438.8264,N,13545.3307,E,152106.00,V,N*6B
00:21:08.143 $GNGSA,A,1,,,,,,,,,,,,,3.2,2.0,2.5*2A
00:21:08.159 $GPGSV,3,1,11,04,35,296,34,08,14,219,00,09,11,319,00,16,59,310,36*7A
00:21:08.159 $GPGSV,3,2,11,18,25,083,36,26,63,020,41,27,47,213,32,28,38,124,35*79
00:21:08.159 $GPGSV,3,3,11,29,09,040,30,31,66,107,41,32,00,168,,,,,*43
00:21:08.162 $GQGSV,1,1,04,02,,,40,03,,,26,07,48,195,30,61,,,37*4B
00:21:08.162 $GNRMC,152106.00,V,3438.8264,N,13545.3307,E,,,050726,8.2,W,N*29
00:21:08.162 $GNVTG,,T,,M,,N,,K,N*32
00:21:08.162 $GNZDA,152106.00,05,07,2026,,*7D
00:21:08.238 $L1BAT,4.307*28
00:21:08.440 $L1MAG,0.00,0.00,856,856*36
00:21:09.126 $GPGGA,152107.01,3438.8264,N,13545.3307,E,0,00,2.0,0.0,M,0.0,M,,*5B
00:21:09.130 $GNGLL,3438.8264,N,13545.3307,E,152107.01,V,N*6B
00:21:09.130 $GNGSA,A,1,,,,,,,,,,,,,3.2,2.0,2.5*2A
00:21:09.167 $GPGSV,3,1,11,04,35,296,34,08,14,219,00,09,11,319,00,16,59,310,36*7A
00:21:09.205 $GPGSV,3,2,11,18,25,083,34,26,63,020,41,27,47,213,31,28,38,124,36*7B
00:21:09.243 $GPGSV,3,3,11,29,09,040,31,31,66,107,39,32,00,168,,,,,*4D
00:21:09.279 $GQGSV,1,1,04,02,85,117,39,03,,,27,07,48,195,30,61,,,35*7C
00:21:09.282 $GNRMC,152107.01,V,3438.8264,N,13545.3307,E,,,050726,8.2,W,N*29
00:21:09.284 $GNVTG,,T,,M,,N,,K,N*32
00:21:09.284 $GNZDA,152107.01,05,07,2026,,*7D
00:21:09.290 $L1BAT,4.307*28
00:21:09.310 $L1MAG,0.00,0.00,852,852*36
00:21:10.096 $GPGGA,152108.00,3438.8264,N,13545.3307,E,0,00,2.0,0.0,M,0.0,M,,*55
00:21:10.153 $GNGLL,3438.8264,N,13545.3307,E,152108.00,V,N*65
00:21:10.153 $GNGSA,A,1,,,,,,,,,,,,,3.2,2.0,2.5*2A
00:21:10.153 $GPGSV,3,1,11,04,35,296,34,08,14,219,00,09,11,319,06,16,59,310,41*7C
00:21:10.153 $GPGSV,3,2,11,18,25,083,36,26,63,020,38,27,47,213,34,28,38,124,34*70
00:21:10.157 $GPGSV,3,3,11,29,09,040,30,31,66,107,40,32,00,168,,,,,*42
00:21:10.157 $GQGSV,1,1,04,02,85,117,39,03,,,26,07,48,195,28,61,,,34*75
00:21:10.158 $GNRMC,152108.00,V,3438.8264,N,13545.3307,E,,,050726,8.2,W,N*27
00:21:10.159 $GNVTG,,T,,M,,N,,K,N*32
00:21:10.159 $GNZDA,152108.00,05,07,2026,,*73
00:21:10.241 $L1BAT,4.307*28
00:21:10.314 $L1MAG,0.00,0.00,841,841*36
00:21:11.110 $GPGGA,152109.00,3438.8264,N,13545.3307,E,0,00,2.0,0.0,M,0.0,M,,*54
00:21:11.110 $GNGLL,3438.8264,N,13545.3307,E,152109.00,V,N*64
00:21:11.110 $GNGSA,A,1,,,,,,,,,,,,,3.2,2.0,2.5*2A
00:21:11.113 $GPGSV,3,1,11,04,35,296,33,08,14,219,00,09,11,319,07,16,59,310,37*7B
00:21:11.118 $GPGSV,3,2,11,18,25,083,34,26,63,020,40,27,47,213,34,28,38,124,35*7C
00:21:11.135 $GPGSV,3,3,11,29,09,040,29,31,66,107,37,32,00,168,,,,,*4A
00:21:11.135 $GQGSV,1,1,04,02,85,117,39,03,,,27,07,48,195,28,61,,,34*74
00:21:11.147 $GNRMC,152109.00,V,3438.8264,N,13545.3307,E,,,050726,8.2,W,N*26
00:21:11.147 $GNVTG,,T,,M,,N,,K,N*32
00:21:11.147 $GNZDA,152109.00,05,07,2026,,*72
00:21:11.238 $L1BAT,4.307*28
00:21:11.370 $L1MAG,0.00,0.00,804,804*36
00:21:12.121 $GPGGA,152110.00,3438.8264,N,13545.3307,E,0,00,2.0,0.0,M,0.0,M,,*5C
00:21:12.123 $GNGLL,3438.8264,N,13545.3307,E,152110.00,V,N*6C
00:21:12.123 $GNGSA,A,1,,,,,,,,,,,,,3.2,2.0,2.5*2A
00:21:12.126 $GPGSV,3,1,11,04,35,296,30,08,14,219,18,09,11,319,00,16,59,310,39*78
00:21:12.128 $GPGSV,3,2,11,18,25,083,35,26,63,020,37,27,47,213,35,28,38,124,35*7C
00:21:12.131 $GPGSV,3,3,11,29,09,040,33,31,66,107,39,32,00,168,,,,,*4F
00:21:12.133 $GQGSV,1,1,04,02,85,117,38,03,,,27,07,48,195,27,61,,,32*7C
00:21:12.136 $GNRMC,152110.00,V,3438.8264,N,13545.3307,E,,,050726,8.2,W,N*2E
00:21:12.146 $GNVTG,,T,,M,,N,,K,N*32
00:21:12.146 $GNZDA,152110.00,05,07,2026,,*7A
00:21:12.235 $L1BAT,4.307*28
00:21:12.313 $L1MAG,0.00,0.00,778,778*36
00:21:13.098 $GPGGA,152111.00,3438.8264,N,13545.3307,E,0,00,2.0,0.0,M,0.0,M,,*5D
00:21:13.118 $GNGLL,3438.8264,N,13545.3307,E,152111.00,V,N*6D
00:21:13.118 $GNGSA,A,1,,,,,,,,,,,,,3.2,2.0,2.5*2A
00:21:13.118 $GPGSV,3,1,11,04,35,296,34,08,14,219,17,09,11,319,03,16,59,310,37*7E
00:21:13.135 $GPGSV,3,2,11,18,25,083,36,26,63,021,35,27,47,213,35,28,38,124,40*7E
00:21:13.135 $GPGSV,3,3,11,29,09,040,29,31,66,107,39,32,00,168,,,,,*44
00:21:13.143 $GQGSV,1,1,04,02,85,117,37,03,,,26,07,48,195,28,61,,,35*7A
00:21:13.143 $GNRMC,152111.00,V,3438.8264,N,13545.3307,E,,,050726,8.2,W,N*2F
00:21:13.143 $GNVTG,,T,,M,,N,,K,N*32
00:21:13.143 $GNZDA,152111.00,05,07,2026,,*7B
00:21:13.227 $L1BAT,4.307*28
00:21:13.310 $L1MAG,0.00,0.00,526,526*36
00:21:14.149 $GPGGA,152112.00,3438.8264,N,13545.3307,E,0,00,2.0,0.0,M,0.0,M,,*5E
00:21:14.150 $GNGLL,3438.8264,N,13545.3307,E,152112.00,V,N*6E
00:21:14.150 $GNGSA,A,1,,,,,,,,,,,,,3.2,2.0,2.5*2A
00:21:14.184 $GPGSV,3,1,11,04,35,296,33,08,14,219,16,09,11,319,10,16,59,310,38*75
00:21:14.221 $GPGSV,3,2,11,18,25,083,40,26,63,021,33,27,47,213,36,28,38,124,40*7A
00:21:14.258 $GPGSV,3,3,11,29,09,040,34,31,66,107,39,32,00,168,,,,,*48
00:21:14.297 $GQGSV,1,1,04,02,85,117,37,03,,,33,07,48,195,28,61,,,35*7E
00:21:14.304 $GNRMC,152112.00,V,3438.8264,N,13545.3307,E,,,050726,8.2,W,N*2C
00:21:14.307 $GNVTG,,T,,M,,N,,K,N*32
00:21:14.307 $GNZDA,152112.00,05,07,2026,,*78
00:21:14.311 $L1BAT,4.307*28
00:21:14.363 $L1MAG,0.00,0.00,499,499*36
00:21:15.104 $GPGGA,152113.00,3438.8264,N,13545.3307,E,0,00,2.0,0.0,M,0.0,M,,*5F
00:21:15.111 $GNGLL,3438.8264,N,13545.3307,E,152113.00,V,N*6F
00:21:15.111 $GNGSA,A,1,,,,,,,,,,,,,3.2,2.0,2.5*2A
00:21:15.122 $GPGSV,3,1,11,04,35,296,33,08,14,219,14,09,11,319,03,16,59,310,39*74
00:21:15.122 $GPGSV,3,2,11,18,25,083,40,26,63,021,34,27,47,213,39,28,38,124,35*70
00:21:15.138 $GPGSV,3,3,11,29,09,040,29,31,66,107,40,32,00,168,,,,,*4A
00:21:15.138 $GQGSV,1,1,04,02,85,117,36,03,,,38,07,48,195,31,61,,,38*71
00:21:15.147 $GNRMC,152113.00,V,3438.8264,N,13545.3307,E,,,050726,8.2,W,N*2D
00:21:15.147 $GNVTG,,T,,M,,N,,K,N*32
00:21:15.147 $GNZDA,152113.00,05,07,2026,,*79
00:21:15.231 $L1BAT,4.307*28
00:21:15.320 $L1MAG,0.00,0.00,569,569*36
00:21:16.103 $GPGGA,152114.00,3438.8264,N,13545.3307,E,0,00,2.0,0.0,M,0.0,M,,*58
00:21:16.104 $GNGLL,3438.8264,N,13545.3307,E,152114.00,V,N*68
00:21:16.104 $GNGSA,A,1,,,,,,,,,,,,,3.2,2.0,2.5*2A
00:21:16.118 $GPGSV,3,1,11,04,35,296,36,08,14,219,00,09,11,319,00,16,59,310,44*7D
00:21:16.130 $GPGSV,3,2,11,18,25,083,39,26,63,021,43,27,47,213,39,28,38,124,39*72
00:21:16.130 $GPGSV,3,3,11,29,09,040,29,31,66,107,40,32,00,168,,,,,*4A
00:21:16.140 $GQGSV,1,1,04,02,85,117,44,03,,,39,07,48,195,35,61,,,42*7C
00:21:16.140 $GNRMC,152114.00,V,3438.8264,N,13545.3307,E,,,050726,8.2,W,N*2A
00:21:16.154 $GNVTG,,T,,M,,N,,K,N*32
00:21:16.154 $GNZDA,152114.00,05,07,2026,,*7E
00:21:16.234 $L1BAT,4.307*28
00:21:16.276 $L1MAG,0.00,0.00,577,577*36
00:21:17.126 $GPGGA,152115.00,3438.8264,N,13545.3307,E,0,00,2.0,0.0,M,0.0,M,,*59
00:21:17.126 $GNGLL,3438.8264,N,13545.3307,E,152115.00,V,N*69
00:21:17.126 $GNGSA,A,1,,,,,,,,,,,,,3.2,2.0,2.5*2A
00:21:17.192 $GPGSV,3,1,11,04,35,296,29,08,14,219,12,09,11,319,00,16,59,310,43*77
00:21:17.192 $GPGSV,3,2,11,18,25,083,43,26,63,021,46,27,47,213,41,28,38,124,44*7F
00:21:17.192 $GPGSV,3,3,11,29,09,040,30,31,66,107,45,32,00,168,,,,,*47
00:21:17.192 $GQGSV,1,1,04,02,85,117,46,03,,,38,07,48,195,,61,,,49*72
00:21:17.192 $GNRMC,152115.00,V,3438.8264,N,13545.3307,E,,,050726,8.2,W,N*2B
00:21:17.192 $GNVTG,,T,,M,,N,,K,N*32
00:21:17.192 $GNZDA,152115.00,05,07,2026,,*7F
00:21:17.238 $L1BAT,4.307*28
00:21:17.341 $L1MAG,0.00,0.00,615,615*36
00:21:18.106 $GPGGA,152116.00,3438.8264,N,13545.3307,E,0,00,2.0,0.0,M,0.0,M,,*5A
00:21:18.109 $GNGLL,3438.8264,N,13545.3307,E,152116.00,V,N*6A
00:21:18.109 $GNGSA,A,1,,,,,,,,,,,,,3.2,2.0,2.5*2A
00:21:18.122 $GPGSV,3,1,11,04,35,296,22,08,14,219,00,09,11,319,13,16,59,310,35*7C
00:21:18.134 $GPGSV,3,2,11,18,25,083,44,26,63,021,46,27,47,213,41,28,38,124,44*78
00:21:18.142 $GPGSV,3,3,11,29,09,040,28,31,66,107,44,32,00,168,,,,,*4F
00:21:18.142 $GQGSV,1,1,04,02,85,117,43,03,,,37,07,48,195,,56,,,46*73
00:21:18.154 $GNRMC,152116.00,V,3438.8264,N,13545.3307,E,,,050726,8.2,W,N*28
00:21:18.154 $GNVTG,,T,,M,,N,,K,N*32
00:21:18.154 $GNZDA,152116.00,05,07,2026,,*7C
00:21:18.232 $L1BAT,4.307*28
00:21:18.302 $L1MAG,0.00,0.00,617,617*36
00:21:19.107 $GPGGA,152117.00,3438.8264,N,13545.3307,E,0,00,2.0,0.0,M,0.0,M,,*5B
00:21:19.107 $GNGLL,3438.8264,N,13545.3307,E,152117.00,V,N*6B
00:21:19.112 $GNGSA,A,1,,,,,,,,,,,,,3.2,2.0,2.5*2A
00:21:19.116 $GPGSV,3,1,11,04,35,296,30,08,14,219,25,09,11,319,00,16,59,310,35*7A
00:21:19.132 $GPGSV,3,2,11,18,25,083,44,26,63,021,43,27,47,213,39,28,38,124,48*7E
00:21:19.132 $GPGSV,3,3,11,29,09,040,27,31,66,107,46,32,00,168,,,,,*42
00:21:19.143 $GQGSV,1,1,04,02,85,117,41,03,,,42,07,48,195,,56,,,38*7A
00:21:19.143 $GNRMC,152117.00,V,3438.8264,N,13545.3307,E,,,050726,8.2,W,N*29
00:21:19.143 $GNVTG,,T,,M,,N,,K,N*32
00:21:19.143 $GNZDA,152117.00,05,07,2026,,*7D
00:21:19.245 $L1BAT,4.307*28
00:21:19.310 $L1MAG,0.00,0.00,607,607*36
00:21:20.112 $GPGGA,152118.00,3438.8264,N,13545.3307,E,0,00,2.0,0.0,M,0.0,M,,*54
00:21:20.114 $GNGLL,3438.8264,N,13545.3307,E,152118.00,V,N*64
00:21:20.114 $GNGSA,A,1,,,,,,,,,,,,,3.2,2.0,2.5*2A
00:21:20.130 $GPGSV,3,1,11,04,35,296,28,08,14,219,27,09,11,319,12,16,59,310,34*73
00:21:20.132 $GPGSV,3,2,11,18,25,083,40,26,63,021,37,27,47,213,43,28,38,124,47*7B
00:21:20.134 $GPGSV,3,3,11,29,09,040,25,31,66,107,44,32,00,168,,,,,*42
00:21:20.136 $GQGSV,1,1,04,02,85,117,41,03,,,42,07,48,195,,56,,,42*77
00:21:20.138 $GNRMC,152118.00,V,3438.8264,N,13545.3307,E,,,050726,8.2,W,N*26
00:21:20.142 $GNVTG,,T,,M,,N,,K,N*32
00:21:20.142 $GNZDA,152118.00,05,07,2026,,*72
00:21:20.236 $L1BAT,4.311*2F
00:21:20.345 $L1MAG,0.00,0.00,633,633*36
00:21:21.099 $GPGGA,152119.00,3438.8264,N,13545.3307,E,0,00,2.0,0.0,M,0.0,M,,*55
00:21:21.116 $GNGLL,3438.8264,N,13545.3307,E,152119.00,V,N*65
00:21:21.116 $GNGSA,A,1,,,,,,,,,,,,,3.2,2.0,2.5*2A
00:21:21.131 $GPGSV,3,1,11,04,35,296,30,08,14,219,28,09,11,319,12,16,59,310,35*74
00:21:21.131 $GPGSV,3,2,11,18,25,083,41,26,63,021,39,27,47,213,45,28,38,124,43*76
00:21:21.131 $GPGSV,3,3,11,29,09,040,21,31,66,107,42,32,00,168,,,,,*40
00:21:21.150 $GQGSV,1,1,04,02,85,117,42,03,,,41,07,48,195,,56,,,44*71
00:21:21.150 $GNRMC,152119.00,V,3438.8264,N,13545.3307,E,,,050726,8.2,W,N*27
00:21:21.150 $GNVTG,,T,,M,,N,,K,N*32
00:21:21.150 $GNZDA,152119.00,05,07,2026,,*73
00:21:21.232 $L1BAT,4.311*2F
00:21:21.311 $L1MAG,0.00,0.00,632,632*36
00:21:22.179 $GPGGA,152120.06,3438.8264,N,13545.3307,E,0,00,2.0,0.0,M,0.0,M,,*59
00:21:22.183 $GNGLL,3438.8264,N,13545.3307,E,152120.06,V,N*69
00:21:22.183 $GNGSA,A,1,,,,,,,,,,,,,3.2,2.0,2.5*2A
00:21:22.217 $GPGSV,3,1,11,04,35,296,34,08,14,219,28,09,11,319,,16,59,310,34*72
00:21:22.255 $GPGSV,3,2,11,18,25,083,39,26,63,021,37,27,47,213,46,28,38,124,43*74
00:21:22.301 $GPGSV,3,3,11,29,09,040,21,31,66,107,44,32,00,168,,,,,*46
00:21:22.339 $GQGSV,1,1,04,02,85,117,42,03,,,42,07,48,195,,56,,,44*72
00:21:22.350 $GNRMC,152120.06,V,3438.8264,N,13545.3307,E,,,050726,8.2,W,N*2B
00:21:22.352 $GNVTG,,T,,M,,N,,K,N*32
00:21:22.352 $GNZDA,152120.06,05,07,2026,,*7F
00:21:22.355 $L1BAT,4.311*2F
00:21:22.361 $L1MAG,0.00,0.00,582,582*36
00:21:23.173 $GPGGA,152121.06,3438.8264,N,13545.3307,E,0,00,2.0,0.0,M,0.0,M,,*58
00:21:23.174 $GNGLL,3438.8264,N,13545.3307,E,152121.06,V,N*68
00:21:23.175 $GNGSA,A,1,,,,,,,,,,,,,3.2,2.0,2.5*2A
00:21:23.177 $GPGSV,3,1,11,04,35,296,32,08,14,219,28,09,11,319,,16,59,310,36*76
00:21:23.193 $GPGSV,3,2,11,18,25,082,39,26,63,021,38,27,47,213,46,28,38,124,44*7D
00:21:23.197 $GPGSV,3,3,11,29,09,040,21,31,66,107,44,32,00,168,,,,,*46
00:21:23.210 $GQGSV,1,1,04,02,85,117,42,03,,,41,07,48,195,,56,,,42*77
00:21:23.210 $GNRMC,152121.06,V,3438.8264,N,13545.3307,E,,,050726,8.2,W,N*2A
00:21:23.220 $GNVTG,,T,,M,,N,,K,N*32
00:21:23.220 $GNZDA,152121.06,05,07,2026,,*7E
00:21:23.303 $L1BAT,4.311*2F
00:21:23.404 $L1MAG,0.00,0.00,548,548*36
00:21:24.129 $GPGGA,152122.00,3438.8264,N,13545.3307,E,0,00,2.0,0.0,M,0.0,M,,*5D
00:21:24.131 $GNGLL,3438.8264,N,13545.3307,E,152122.00,V,N*6D
00:21:24.131 $GNGSA,A,1,,,,,,,,,,,,,3.2,2.0,2.5*2A
00:21:24.133 $GPGSV,3,1,11,04,35,296,33,08,14,219,32,09,11,319,,16,59,310,34*7E
00:21:24.136 $GPGSV,3,2,11,18,25,082,41,26,63,021,38,27,47,213,43,28,38,124,46*75
00:21:24.138 $GPGSV,3,3,11,29,09,040,19,31,66,107,44,32,00,168,,,,,*4D
00:21:24.183 $GQGSV,1,1,04,02,85,117,41,03,,,41,07,48,195,,56,,,41*77
00:21:24.185 $GNRMC,152122.00,V,3438.8264,N,13545.3307,E,,,050726,8.2,W,N*2F
00:21:24.233 $GNVTG,,T,,M,,N,,K,N*32
00:21:24.233 $GNZDA,152122.00,05,07,2026,,*7B
00:21:24.236 $L1BAT,4.311*2F
00:21:24.314 $L1MAG,0.00,0.00,549,549*36
00:21:25.116 $GPGGA,152123.00,3438.8264,N,13545.3307,E,0,00,2.0,0.0,M,0.0,M,,*5C
00:21:25.121 $GNGLL,3438.8264,N,13545.3307,E,152123.00,V,N*6C
00:21:25.121 $GNGSA,A,1,,,,,,,,,,,,,3.2,2.0,2.5*2A
00:21:25.121 $GPGSV,3,1,11,04,35,296,34,08,14,219,37,09,11,319,00,16,59,310,35*7D
00:21:25.121 $GPGSV,3,2,11,18,25,082,44,26,63,021,42,27,47,213,40,28,38,124,46*7E
00:21:25.131 $GPGSV,3,3,11,29,09,040,22,31,66,107,43,32,00,168,,,,,*42
00:21:25.131 $GQGSV,1,1,04,02,85,117,41,03,,,41,07,48,195,,56,,,44*72
00:21:25.141 $GNRMC,152123.00,V,3438.8264,N,13545.3307,E,,,050726,8.2,W,N*2E
00:21:25.150 $GNVTG,,T,,M,,N,,K,N*32
00:21:25.150 $GNZDA,152123.00,05,07,2026,,*7A
00:21:25.233 $L1BAT,4.311*2F
00:21:25.284 $L1MAG,0.00,0.00,655,655*36
00:21:26.107 $GPGGA,152124.00,3438.8264,N,13545.3307,E,0,00,2.0,0.0,M,0.0,M,,*5B
00:21:26.107 $GNGLL,3438.8264,N,13545.3307,E,152124.00,V,N*6B
00:21:26.107 $GNGSA,A,1,,,,,,,,,,,,,3.2,2.0,2.5*2A
00:21:26.118 $GPGSV,3,1,11,04,35,295,42,08,14,219,29,09,11,319,00,16,59,310,45*77
00:21:26.154 $GPGSV,3,2,11,18,25,082,44,26,63,021,45,27,47,213,35,28,38,124,40*7D
00:21:26.154 $GPGSV,3,3,11,29,09,040,30,31,66,107,43,32,00,168,,,,,*41
00:21:26.157 $GQGSV,1,1,04,02,85,117,43,03,,,38,07,48,195,,56,,,46*7C
00:21:26.158 $GNRMC,152124.00,V,3438.8264,N,13545.3307,E,,,050726,8.2,W,N*29
00:21:26.161 $GNVTG,,T,,M,,N,,K,N*32
00:21:26.161 $GNZDA,152124.00,05,07,2026,,*7D
00:21:26.240 $L1BAT,4.311*2F
00:21:26.340 $L1MAG,0.00,0.00,726,726*36
00:21:27.256 $GPGGA,152125.15,3438.8713,N,13545.3436,E,1,04,2.8,-11.8,M,34.3,M,,*72
00:21:27.259 $GNGLL,3438.8713,N,13545.3436,E,152125.15,A,A*76
00:21:27.259 $GNGSA,A,3,27,194,31,28,,,,,,,,,3.0,2.8,1.0*15
00:21:27.268 $GPGSV,3,1,11,04,35,295,41,08,14,219,29,09,11,319,00,16,59,310,44*75
00:21:27.285 $GPGSV,3,2,11,18,25,082,44,26,63,021,45,27,47,213,38,28,38,124,38*7F
00:21:27.285 $GPGSV,3,3,11,29,09,040,29,31,66,107,43,32,00,168,,,,,*49
00:21:27.302 $GQGSV,1,1,04,02,85,117,43,03,,,32,07,48,195,,56,,,46*76
00:21:27.302 $GNRMC,152125.15,A,3438.8713,N,13545.3436,E,2.8,109.8,050726,8.2,W,A*3E
00:21:27.313 $GNVTG,109.8,T,118.0,M,2.8,N,5.1,K,A*3B
00:21:27.313 $GNZDA,152125.15,05,07,2026,,*78
00:21:27.390 $L1BAT,4.311*2F
00:21:27.462 $L1MAG,0.00,0.00,608,608*36
00:21:28.114 $GPGGA,152126.00,3438.8594,N,13545.3468,E,1,04,2.8,-10.2,M,34.3,M,,*78
00:21:28.117 $GNGLL,3438.8594,N,13545.3468,E,152126.00,A,A*77
00:21:28.117 $GNGSA,A,3,27,194,31,28,,,,,,,,,3.0,2.8,1.0*15
00:21:28.120 $GPGSV,3,1,11,04,35,295,32,08,14,219,38,09,11,319,00,16,59,310,33*71
00:21:28.131 $GPGSV,3,2,11,18,25,082,43,26,63,021,40,27,47,213,42,28,38,124,46*79
00:21:28.145 $GPGSV,3,3,11,29,09,040,29,31,66,107,44,32,00,168,,,,,*4E
00:21:28.151 $GQGSV,1,1,04,02,85,117,42,03,,,42,07,48,195,,56,,,44*72
00:21:28.151 $GNRMC,152126.00,A,3438.8594,N,13545.3468,E,2.8,56.0,050726,8.2,W,A*0C
00:21:28.163 $GNVTG,56.0,T,64.2,M,2.8,N,5.1,K,A*30
00:21:28.163 $GNZDA,152126.00,05,07,2026,,*7F
00:21:28.237 $L1BAT,4.311*2F
00:21:28.288 $L1MAG,0.00,0.00,551,551*36
00:21:29.030 $GPGGA,152127.00,3438.8646,N,13545.3461,E,1,04,2.8,-8.6,M,34.3,M,,*41
00:21:29.035 $GNGLL,3438.8646,N,13545.3461,E,152127.00,A,A*73
00:21:29.035 $GNGSA,A,3,27,194,31,28,,,,,,,,,3.0,2.8,1.0*15
00:21:29.049 $GPGSV,3,1,11,04,35,295,30,08,14,219,40,09,11,319,00,16,59,310,31*7E
00:21:29.062 $GPGSV,3,2,11,18,25,082,39,26,63,021,36,27,47,213,42,28,38,124,46*75
00:21:29.062 $GPGSV,3,3,11,29,09,040,24,31,66,107,44,32,00,168,,,,,*43
00:21:29.062 $GQGSV,1,1,04,02,85,117,40,03,,,42,07,48,195,,56,,,42*76
00:21:29.062 $GNRMC,152127.00,A,3438.8646,N,13545.3461,E,3.6,45.3,050726,8.2,W,A*06
00:21:29.071 $GNVTG,45.3,T,53.4,M,3.6,N,6.7,K,A*39
00:21:29.081 $GNZDA,152127.00,05,07,2026,,*7E
00:21:29.157 $L1BAT,4.311*2F
00:21:29.284 $L1MAG,0.00,0.00,560,560*36
00:21:30.033 $GPGGA,152128.00,3438.8682,N,13545.3448,E,1,04,2.8,-7.3,M,34.3,M,,*47
00:21:30.037 $GNGLL,3438.8682,N,13545.3448,E,152128.00,A,A*7F
00:21:30.037 $GNGSA,A,3,27,194,31,28,,,,,,,,,3.0,2.8,1.0*15
00:21:30.043 $GPGSV,3,1,11,04,35,295,31,08,14,219,37,09,11,319,,16,59,310,34*7A
00:21:30.055 $GPGSV,3,2,11,18,25,082,42,26,63,021,37,27,47,213,44,28,38,124,48*70
00:21:30.067 $GPGSV,3,3,11,29,09,040,20,31,66,107,45,32,00,168,,,,,*46
00:21:30.078 $GQGSV,1,1,04,02,85,117,39,03,,,42,07,48,195,,56,,,41*7B
00:21:30.078 $GNRMC,152128.00,A,3438.8682,N,13545.3448,E,3.6,63.5,050726,8.2,W,A*08
00:21:30.086 $GNVTG,63.5,T,71.7,M,3.6,N,6.7,K,A*38
00:21:30.096 $GNZDA,152128.00,05,07,2026,,*71
00:21:30.172 $L1BAT,4.311*2F
00:21:30.248 $L1MAG,0.00,0.00,567,567*36
00:21:31.048 $GPGGA,152129.00,3438.8698,N,13545.3452,E,1,04,2.8,-6.2,M,34.3,M,,*46
00:21:31.050 $GNGLL,3438.8698,N,13545.3452,E,152129.00,A,A*7E
00:21:31.050 $GNGSA,A,3,27,194,31,28,,,,,,,,,3.0,2.8,1.0*15
00:21:31.050 $GPGSV,3,1,11,04,35,295,31,08,14,219,39,09,11,319,,16,59,310,34*74
00:21:31.054 $GPGSV,3,2,11,18,25,082,40,26,63,021,38,27,47,213,44,28,38,124,46*73
00:21:31.058 $GPGSV,3,3,11,29,09,040,20,31,66,107,44,32,00,168,,,,,*47
00:21:31.068 $GQGSV,1,1,04,02,85,117,39,03,,,41,07,48,195,,56,,,41*78
00:21:31.078 $GNRMC,152129.00,A,3438.8698,N,13545.3452,E,3.6,64.6,050726,8.2,W,A*0D
00:21:31.088 $GNVTG,64.6,T,72.7,M,3.6,N,6.7,K,A*3F
00:21:31.095 $GNZDA,152129.00,05,07,2026,,*70
00:21:31.173 $L1BAT,4.311*2F
00:21:31.224 $L1MAG,0.00,0.00,554,554*36
00:21:32.027 $GPGGA,152130.00,3438.8700,N,13545.3467,E,1,04,2.8,-5.1,M,34.3,M,,*48
00:21:32.036 $GNGLL,3438.8700,N,13545.3467,E,152130.00,A,A*70
00:21:32.036 $GNGSA,A,3,27,194,31,28,,,,,,,,,3.0,2.8,1.0*15
00:21:32.053 $GPGSV,3,1,11,04,35,295,31,08,14,219,40,09,11,319,,16,59,310,32*7C
00:21:32.053 $GPGSV,3,2,11,18,25,082,42,26,63,021,36,27,47,213,43,28,38,124,47*79
00:21:32.063 $GPGSV,3,3,11,29,09,040,22,31,66,107,45,32,00,168,,,,,*44
00:21:32.063 $GQGSV,1,1,04,02,85,117,41,03,,,41,07,48,195,,56,,,42*74
00:21:32.063 $GNRMC,152130.00,A,3438.8700,N,13545.3467,E,3.6,81.2,050726,8.2,W,A*0C
00:21:32.074 $GNVTG,81.2,T,89.4,M,3.6,N,6.7,K,A*37
00:21:32.087 $GNZDA,152130.00,05,07,2026,,*78
00:21:32.164 $L1BAT,4.311*2F
00:21:32.265 $L1MAG,0.00,0.00,564,564*36
00:21:33.043 $GPGGA,152131.00,3438.8698,N,13545.3486,E,1,04,2.8,-4.0,M,34.3,M,,*46
00:21:33.047 $GNGLL,3438.8698,N,13545.3486,E,152131.00,A,A*7E
00:21:33.047 $GNGSA,A,3,27,194,31,28,,,,,,,,,3.0,2.8,1.0*15
00:21:33.048 $GPGSV,3,1,11,04,35,295,32,08,14,219,36,09,11,319,,16,59,310,34*78
00:21:33.052 $GPGSV,3,2,11,18,25,082,41,26,63,021,35,27,47,213,42,28,38,124,46*79
00:21:33.058 $GPGSV,3,3,11,29,09,040,22,31,66,107,44,32,00,168,,,,,*45
00:21:33.058 $GQGSV,1,1,04,02,85,117,41,03,,,41,07,48,195,,56,,,42*74
00:21:33.069 $GNRMC,152131.00,A,3438.8698,N,13545.3486,E,3.7,94.8,050726,8.2,W,A*0D
00:21:33.081 $GNVTG,94.8,T,102.9,M,3.7,N,6.8,K,A*08
00:21:33.090 $GNZDA,152131.00,05,07,2026,,*79
00:21:33.183 $L1BAT,4.311*2F
00:21:33.233 $L1MAG,0.00,0.00,631,631*36
00:21:34.050 $GPGGA,152132.01,3438.8644,N,13545.3509,E,1,07,1.6,-3.0,M,34.3,M,,*4A
00:21:34.054 $GNGLL,3438.8644,N,13545.3509,E,152132.01,A,A*7B
00:21:34.054 $GNGSA,A,3,18,27,194,31,28,26,16,,,,,,3.1,1.6,2.7*17
00:21:34.055 $GPGSV,3,1,11,04,35,295,31,08,14,219,33,09,11,319,,16,59,310,40*7D
00:21:34.057 $GPGSV,3,2,11,18,25,082,46,26,63,021,47,27,47,213,42,28,38,124,47*7A
00:21:34.060 $GPGSV,3,3,11,29,09,040,25,31,66,107,46,32,00,168,,,,,*40
00:21:34.077 $GQGSV,1,1,04,02,85,117,44,03,,,41,07,48,195,,56,,,46*75
00:21:34.092 $GNRMC,152132.01,A,3438.8644,N,13545.3509,E,3.6,98.4,050726,8.2,W,A*09
00:21:34.092 $GNVTG,98.4,T,106.6,M,3.6,N,6.7,K,A*0D
00:21:34.100 $GNZDA,152132.01,05,07,2026,,*7B
00:21:34.177 $L1BAT,4.311*2F
00:21:34.228 $L1MAG,0.00,0.00,652,652*36
00:21:35.038 $GPGGA,152133.00,3438.8605,N,13545.3527,E,1,07,1.6,5.0,M,34.3,M,,*68
00:21:35.043 $GNGLL,3438.8605,N,13545.3527,E,152133.00,A,A*72
00:21:35.043 $GNGSA,A,3,18,27,194,31,28,26,16,,,,,,3.1,1.6,2.7*17
00:21:35.051 $GPGSV,3,1,11,04,35,295,34,08,14,219,37,09,11,319,,16,59,310,42*7E
00:21:35.062 $GPGSV,3,2,11,18,25,082,45,26,63,021,47,27,47,213,44,28,38,124,46*7E
00:21:35.062 $GPGSV,3,3,11,29,09,040,25,31,66,107,46,32,00,168,,,,,*40
00:21:35.077 $GQGSV,1,1,04,02,85,117,44,03,,,42,07,48,195,,56,,,46*76
00:21:35.077 $GNRMC,152133.00,A,3438.8605,N,13545.3527,E,3.6,96.8,050726,8.2,W,A*02
00:21:35.114 $GNVTG,96.8,T,104.9,M,3.6,N,6.7,K,A*02
00:21:35.114 $GNZDA,152133.00,05,07,2026,,*7B
00:21:35.165 $L1BAT,4.311*2F
00:21:35.291 $L1MAG,0.00,0.00,658,658*36
00:21:36.042 $GPGGA,152134.00,3438.8579,N,13545.3536,E,1,07,1.6,12.2,M,34.3,M,,*53
00:21:36.046 $GNGLL,3438.8579,N,13545.3536,E,152134.00,A,A*7D
00:21:36.046 $GNGSA,A,3,18,27,194,31,28,26,16,,,,,,3.1,1.6,2.7*17
00:21:36.050 $GPGSV,3,1,11,04,35,295,34,08,14,219,37,09,11,319,,16,59,310,42*7E
00:21:36.050 $GPGSV,3,2,11,18,25,082,45,26,63,021,46,27,47,213,44,28,38,124,44*7D
00:21:36.060 $GPGSV,3,3,11,29,09,040,25,31,66,107,46,32,00,168,,,,,*40
00:21:36.069 $GQGSV,1,1,04,02,85,117,45,03,,,42,07,48,195,,56,,,49*78
00:21:36.081 $GNRMC,152134.00,A,3438.8579,N,13545.3536,E,3.6,95.4,050726,8.2,W,A*02
00:21:36.081 $GNVTG,95.4,T,103.5,M,3.6,N,6.6,K,A*07
00:21:36.092 $GNZDA,152134.00,05,07,2026,,*7C
00:21:36.177 $L1BAT,4.311*2F
00:21:36.228 $L1MAG,0.00,0.00,644,644*36
00:21:37.048 $GPGGA,152135.00,3438.8558,N,13545.3548,E,1,07,1.6,18.9,M,34.3,M,,*59
